~Version
 VERS              .         2.0                           : CWLS LOG ASCII STANDARD - VERSION 2.0
 WRAP              .         NO                            : ONE LINE PER DEPTH STEP
 DLM               .         SPACE                         : DELIMITING CHARACTER(SPACE TAB OR COMMA)
~Well Information
#_______________________________________________________________________________
#
#PARAMETER_NAME    .UNIT     VALUE                         : DESCRIPTION
#_______________________________________________________________________________
STRT               .ft       11140                         : First reference value
STOP               .ft       11397.5                       : Last reference value
STEP               .ft       0.5                           : Step increment
NULL               .         -9999                         : Missing value
COMP               .                                       : Company
WELL               .         2/4-X-29 A                    : Well name
FLD                .                                       : Field
LOC                .                                       : Location
CNTY               .                                       : County
STAT               .                                       : State
CTRY               .                                       : Country
SRVC               .                                       : Service Company
DATE               .                                       : Date
API                .                                       : API number
~Parameter Information Block
#_______________________________________________________________________________
#
#PARAMETER_NAME    .UNIT     VALUE                         : DESCRIPTION
#_______________________________________________________________________________
SET                .         Run 400 Eko X_50              : 
TLFamily_ADTEMP-T  .         Tool Temperature              : 
TLFamily_ADXT      .         Exposure Time                 : 
TLFamily_ALCDBQ-T  .         Bottom Quadrant Density       : 
TLFamily_ALCDH-T   .         Density Image                 : 
TLFamily_ALCDLC-T  .         Best Rapid Sampling Density   : 
TLFamily_ALCDTQ-T  .         Top Quadrant Density          : 
TLFamily_ALDCA-T   .         Bulk Density Correction       : 
TLFamily_ALDCLC-T  .         Bulk Density Correction       : 
TLFamily_ARH16PC-T .         Shallow Phase Shift Resistivity: 
TLFamily_ARM48PC-T .         Deep Phase Shift Resistivity  : 
TLFamily_BGCGC-T   .         At Bit Gamma Ray              : 
TLFamily_DEPT      .         Measured Depth                : 
TLFamily_GMGRCC-T  .         Gamma Ray                     : 
TLFamily_GMHSU-T   .                                       : 
TLFamily_PWEA      .         PWD Equivalent Mud Weight     : 
TLFamily_PWEAAF    .         PWD Pumps Off Equivalent Mud Weight: 
TLFamily_PWEANF    .         PWD Min Pumps Off Equivalent Mud Weight: 
TLFamily_PWEAXF    .         PWD Max Pumps Off Equivalent Mud Weight: 
TLFamily_PWPA      .         PWD Annular Pressure          : 
TLFamily_PWPI      .                                       : 
TLFamily_ROPA      .         CPI Rate of Penetration       : 
TLFamily_TNPL-T    .         Limestone Neutron Porosity    : 
TLFamily_XBDEHC-T  .         Waveform Spectrum             : 
~Curve Information
#_______________________________________________________________________________
#
#LOGNAME           .UNIT     LOG_ID                        : DESCRIPTION
#_______________________________________________________________________________
DEPT               .ft                                     : DEPT/Depth 
ADTEMP-T           .degF                                   : ADTEMP-T/ADR Temperature RT 
ADXT               .min                                    : ADXT/ADR Formation Exp Time 
ALCDBQ-T           .g/cc                                   : ALCDBQ-T/ALD Comp Den B-Quad RT 
ALCDH-T[0]         .g/cc                                   : ALCDH-T/ALD Comp Den Azi HS RT 
ALCDH-T[1]         .g/cc                                   : ALCDH-T/ALD Comp Den Azi HS RT 
ALCDH-T[2]         .g/cc                                   : ALCDH-T/ALD Comp Den Azi HS RT 
ALCDH-T[3]         .g/cc                                   : ALCDH-T/ALD Comp Den Azi HS RT 
ALCDH-T[4]         .g/cc                                   : ALCDH-T/ALD Comp Den Azi HS RT 
ALCDH-T[5]         .g/cc                                   : ALCDH-T/ALD Comp Den Azi HS RT 
ALCDH-T[6]         .g/cc                                   : ALCDH-T/ALD Comp Den Azi HS RT 
ALCDH-T[7]         .g/cc                                   : ALCDH-T/ALD Comp Den Azi HS RT 
ALCDLC-T           .g/cc                                   : ALCDLC-T/ALD LCRB Comp Density RT 
ALCDTQ-T           .g/cc                                   : ALCDTQ-T/ALD Comp Den T-Quad RT 
ALDCA-T            .g/cc                                   : ALDCA-T/ALD Average Den Corr RT 
ALDCLC-T           .g/cc                                   : ALDCLC-T/ALD LCRB Density Corr RT 
ARH16PC-T          .ohmm                                   : ARH16PC-T/Avg 16in 2M Ph Res RT 
ARM48PC-T          .ohmm                                   : ARM48PC-T/Avg 48in 500k Ph Res RT 
BGCGC-T            .api                                    : BGCGC-T/ABG Comb Gamma Ray BC RT 
GMGRCC-T           .api                                    : GMGRCC-T/GM Comb Gamma Ray RT BCor 
GMHSU-T            .in                                     : GMHSU-T/GM Hole Size Used RT 
PWEA               .ppg                                    : PWEA/PWD Annular EMW 
PWEAAF             .ppg                                    : PWEAAF/PWD Avg POff Annular EMW 
PWEANF             .ppg                                    : PWEANF/PWD Min POff Annular EMW 
PWEAXF             .ppg                                    : PWEAXF/PWD Max POff Annular EMW 
PWPA               .psig                                   : PWPA/PWD Annular Pressure 
PWPI               .psig                                   : PWPI/PWD Internal Pressure 
ROPA               .fph                                    : ROPA/Avg Rate of Penetration 
TNPL-T             .pu                                     : TNPL-T/CTN Porosity Limestone RT 
XBDEHC-T           .in                                     : XBDEHC-T/XCAL Eqv Hole Diam Cor RT 
~Ascii
# ...
11265      217.4      122.0881   1.91914    1.91914    1.91914    1.91914    1.91914    1.91914    1.91914    1.91914    1.91914    1.900844   1.91914    -0.01163854 -0.01163854 25.69291   30.69683   7.516772   8.113038   5.75       10.33252   -9999      -9999      -9999      5399.599   6004.715   105.1581   35.11179   -9999     
11265.5    217.4      123.8988   1.935117   1.935117   1.935117   1.935117   1.935117   1.935117   1.935117   1.935117   1.935117   1.908895   1.935117   -0.011649  -0.011649  25.69291   30.4666    7.744554   7.662423   5.75       10.34831   -9999      -9999      -9999      5408.265   6004.715   104.4679   33.56384   -9999     
11266      217.4      125.7699   1.935117   1.935117   1.935117   1.935117   1.935117   1.935117   1.935117   1.935117   1.935117   1.916946   1.935117   -0.01165946 -0.01165946 25.69291   30.19768   7.972334   7.662423   5.75       10.34831   -9999      -9999      -9999      5408.265   6004.715   103.1271   32.0159    -9999     
11266.5    217.4      126.3503   1.925795   1.925795   1.925795   1.925795   1.925795   1.925795   1.909145   1.925795   1.925795   1.916946   1.925795   -0.01165946 -0.01165946 25.69291   29.60024   8.200115   7.662423   5.75       10.34831   -9999      -9999      -9999      5408.265   5996.375   100.8818   32.0159    -9999     
11267      -9999      127.2279   1.916474   1.916474   1.916474   1.916474   1.916474   1.916474   1.883174   1.916474   1.916474   1.916946   1.916474   -0.01165946 -0.01165946 25.69291   29.60024   8.200115   8.513803   5.75       10.34629   -9999      -9999      -9999      5407.765   5988.035   100.1652   33.23554   -9999     
11267.5    -9999      127.3336   1.907152   1.907152   1.907152   1.907152   1.907152   1.907152   1.857202   1.907152   1.907152   1.90889    1.907152   -0.01165962 -0.01165962 25.69291   29.60024   8.200115   8.513803   5.75       10.34428   -9999      -9999      -9999      5407.265   5979.695   100.2626   34.45518   -9999     
11268      -9999      128.7836   1.89783    1.89783    1.89783    1.89783    1.89783    1.89783    1.83123    1.89783    1.89783    1.900835   1.89783    -0.01165979 -0.01165979 28.18214   30.88712   8.200115   7.662423   5.75       10.34428   -9999      -9999      -9999      5407.265   5979.695   100.3173   35.67483   -9999     
11268.5    -9999      128.7836   1.888509   1.888509   1.888509   1.888509   1.888509   1.888509   1.805259   1.888509   1.888509   1.900835   1.888509   -0.01165979 -0.01165979 28.18214   30.88712   8.200115   7.662423   5.75       10.34428   -9999      -9999      -9999      5407.265   5979.695   100.1969   35.67483   -9999     
11269      -9999      129.3873   1.879187   1.879187   1.879187   1.879187   1.879187   1.879187   1.779287   1.879187   1.879187   1.882041   1.879187   -0.01165448 -0.01165448 30.38008   30.88712   8.200115   2.554141   5.75       10.33197   -9999      -9999      -9999      5401.266   6001.622   100.026    35.39125   -9999     
11269.5    -9999      129.5336   1.879187   1.879187   1.879187   1.879187   1.879187   1.879187   1.779287   1.879187   1.879187   1.863246   1.879187   -0.01164918 -0.01164918 30.91254   30.88712   8.200115   2.554141   5.75       10.31965   -9999      -9999      -9999      5395.266   6023.548   99.94216   35.10767   -9999     
11270      -9999      130.5003   1.861202   1.886176   1.861202   1.861202   1.861202   1.861202   1.786277   1.861202   1.861202   1.844452   1.873689   -0.01164388 -0.01164388 33.90746   33.63116   8.200115   9.365184   5.75       10.31965   -9999      -9999      -9999      5395.266   6023.548   99.80052   35.10767   -9999     
11270.5    -9999      130.5003   1.843218   1.893165   1.843218   1.843218   1.843218   1.843218   1.793268   1.843218   1.843218   1.844452   1.868191   -0.01164388 -0.01164388 33.90746   33.63116   8.200115   9.365184   5.75       10.32919   -9999      -9999      -9999      5400.599   6023.548   99.90524   37.25844   -9999     
11271      -9999      131.2669   1.825233   1.900154   1.825233   1.825233   1.825233   1.825233   1.800258   1.825233   1.825233   1.836392   1.862693   -0.01946409 -0.01946409 35.51204   33.63116   8.200115   8.939494   5.75       10.33872   -9999      -9999      -9999      5405.932   6023.548   100.0831   39.40921   -9999     
11271.5    -9999      131.5183   1.807248   1.907143   1.807248   1.807248   1.807248   1.807248   1.807248   1.807248   1.807248   1.828332   1.857195   -0.02728431 -0.02728431 35.95671   33.63116   8.200115   8.939494   5.75       10.34825   -9999      -9999      -9999      5411.265   6023.548   100.0658   39.40921   -9999     
11272      219.2      132.2169   1.807248   1.907143   1.807248   1.807248   1.807248   1.807248   1.807248   1.807248   1.807248   1.820273   1.857195   -0.03510452 -0.03510452 37.19255   33.63116   8.200115   7.662423   5.75       10.34825   -9999      -9999      -9999      5411.265   6023.548   100.0919   39.40874   -9999     
11272.5    219.2      133.6602   1.827234   1.902155   1.827234   1.827234   1.827234   1.827234   1.827234   1.827234   1.827234   1.812213   1.864694   -0.04292474 -0.04292474 37.19255   33.63116   8.655677   8.097782   5.75       10.33569   -9999      -9999      -9999      5405.015   6014.146   99.86179   39.40828   -9999     
11273      219.2      135.5203   1.84722    1.897167   1.84722    1.84722    1.84722    1.84722    1.84722    1.84722    1.84722    1.812213   1.872193   -0.04292474 -0.04292474 36.37839   32.95231   9.111238   8.513803   5.75       10.32313   -9999      -9999      -9999      5398.766   6004.744   99.83278   39.40782   -9999     
11273.5    219.2      137.862    1.867206   1.892179   1.867205   1.867205   1.867205   1.867205   1.867205   1.867205   1.867205   1.836389   1.879692   -0.03249054 -0.03249054 35.51204   32.22995   9.566801   8.513803   5.75       10.31058   -9999      -9999      -9999      5392.516   5995.342   100.0305   39.40782   -9999     
11274      219.2      139.4368   1.887191   1.887191   1.887191   1.887191   1.887191   1.887191   1.887191   1.887191   1.887191   1.860565   1.887191   -0.02205635 -0.02205635 34.60567   31.47143   10.02236   8.513803   5.75       10.29802   -9999      -9999      -9999      5386.266   5985.94    99.87582   38.73648   -9999     
11274.5    219.2      140.017    1.887191   1.887191   1.887191   1.887191   1.887191   1.887191   1.887191   1.887191   1.887191   1.884741   1.887191   -0.01162215 -0.01162215 33.90746   30.88712   10.02236   7.662423   5.75       10.29802   -9999      -9999      -9999      5386.266   5985.94    99.64029   38.06515   -9999     
11275      219.2      140.5586   1.935101   1.935101   1.935101   1.935101   1.935101   1.935101   1.935101   1.935101   1.935101   1.915352   1.935101   -0.007359368 -0.007359368 32.41      30.24368   8.503823   7.662423   5.75       10.30172   -9999      -9999      -9999      5388.599   5985.94    99.99909   37.39381   -9999     
11275.5    219.2      141.1003   1.92243    1.975231   1.92243    1.92243    1.92243    1.92243    1.92243    1.92243    1.975231   1.942704   1.975231   0.005395188 0.005395188 30.91254   29.60024   6.985283   8.513803   5.75       10.30542   -9999      -9999      -9999      5390.932   5985.94    99.84186   37.39381   -9999     
11276      -9999      141.1003   1.929149   1.991496   1.929149   1.929149   1.929149   1.929149   1.891622   1.929149   1.991496   1.933043   1.991496   -0.01168705 -0.01168705 30.91254   29.60024   5.466743   8.513803   5.75       10.30912   -9999      -9999      -9999      5393.266   5985.94    99.95234   36.63617   -9999     
11276.5    -9999      141.6503   1.95908    1.95908    1.95908    1.95908    1.95908    1.95908    1.859198   1.95908    1.95908    1.954918   1.95908    0.00953737 0.00953737 25.69291   26.05246   5.466743   8.513803   5.75       10.30912   -9999      -9999      -9999      5393.266   5985.94    99.65895   35.87852   -9999     
11277      -9999      141.6503   1.945546   1.945546   1.945546   1.945546   1.945546   1.945546   1.902065   1.945546   1.945546   1.965266   1.945546   0.01957802 0.01957802 25.69291   26.05246   6.760874   8.338537   5.75       10.30912   -9999      -9999      -9999      5393.266   -9999      99.86089   35.12087   -9999     
