~Version
 VERS              .         2.0                           : CWLS LOG ASCII STANDARD - VERSION 2.0
 WRAP              .         NO                            : ONE LINE PER DEPTH STEP
 DLM               .         SPACE                         : DELIMITING CHARACTER(SPACE TAB OR COMMA)
~Well Information
#_______________________________________________________________________________
#
#PARAMETER_NAME    .UNIT     VALUE                         : DESCRIPTION
#_______________________________________________________________________________
STRT               .ft       11140                         : First reference value
STOP               .ft       11397.5                       : Last reference value
STEP               .ft       0.5                           : Step increment
NULL               .         -9999                         : Missing value
COMP               .                                       : Company
WELL               .         2/4-X-29 A                    : Well name
FLD                .                                       : Field
LOC                .                                       : Location
CNTY               .                                       : County
STAT               .                                       : State
CTRY               .                                       : Country
SRVC               .                                       : Service Company
DATE               .                                       : Date
API                .                                       : API number
~Parameter Information Block
#_______________________________________________________________________________
#
#PARAMETER_NAME    .UNIT     VALUE                         : DESCRIPTION
#_______________________________________________________________________________
SET                .         Run 400 Eko X_50              : 
TLFamily_ADTEMP-T  .         Tool Temperature              : 
TLFamily_ADXT      .         Exposure Time                 : 
TLFamily_ALCDBQ-T  .         Bottom Quadrant Density       : 
TLFamily_ALCDH-T   .         Density Image                 : 
TLFamily_ALCDLC-T  .         Best Rapid Sampling Density   : 
TLFamily_ALCDTQ-T  .         Top Quadrant Density          : 
TLFamily_ALDCA-T   .         Bulk Density Correction       : 
TLFamily_ALDCLC-T  .         Bulk Density Correction       : 
TLFamily_ARH16PC-T .         Shallow Phase Shift Resistivity: 
TLFamily_ARM48PC-T .         Deep Phase Shift Resistivity  : 
TLFamily_BGCGC-T   .         At Bit Gamma Ray              : 
TLFamily_DEPT      .         Measured Depth                : 
TLFamily_GMGRCC-T  .         Gamma Ray                     : 
TLFamily_GMHSU-T   .                                       : 
TLFamily_PWEA      .         PWD Equivalent Mud Weight     : 
TLFamily_PWEAAF    .         PWD Pumps Off Equivalent Mud Weight: 
TLFamily_PWEANF    .         PWD Min Pumps Off Equivalent Mud Weight: 
TLFamily_PWEAXF    .         PWD Max Pumps Off Equivalent Mud Weight: 
TLFamily_PWPA      .         PWD Annular Pressure          : 
TLFamily_PWPI      .                                       : 
TLFamily_ROPA      .         CPI Rate of Penetration       : 
TLFamily_TNPL-T    .         Limestone Neutron Porosity    : 
TLFamily_XBDEHC-T  .         Waveform Spectrum             : 
~Curve Information
#_______________________________________________________________________________
#
#LOGNAME           .UNIT     LOG_ID                        : DESCRIPTION
#_______________________________________________________________________________
DEPT               .ft                                     : DEPT/Depth 
ADTEMP-T           .degF                                   : ADTEMP-T/ADR Temperature RT 
ADXT               .min                                    : ADXT/ADR Formation Exp Time 
ALCDBQ-T           .g/cc                                   : ALCDBQ-T/ALD Comp Den B-Quad RT 
ALCDH-T[0]         .g/cc                                   : ALCDH-T/ALD Comp Den Azi HS RT 
ALCDH-T[1]         .g/cc                                   : ALCDH-T/ALD Comp Den Azi HS RT 
ALCDH-T[2]         .g/cc                                   : ALCDH-T/ALD Comp Den Azi HS RT 
ALCDH-T[3]         .g/cc                                   : ALCDH-T/ALD Comp Den Azi HS RT 
ALCDH-T[4]         .g/cc                                   : ALCDH-T/ALD Comp Den Azi HS RT 
ALCDH-T[5]         .g/cc                                   : ALCDH-T/ALD Comp Den Azi HS RT 
ALCDH-T[6]         .g/cc                                   : ALCDH-T/ALD Comp Den Azi HS RT 
ALCDH-T[7]         .g/cc                                   : ALCDH-T/ALD Comp Den Azi HS RT 
ALCDLC-T           .g/cc                                   : ALCDLC-T/ALD LCRB Comp Density RT 
ALCDTQ-T           .g/cc                                   : ALCDTQ-T/ALD Comp Den T-Quad RT 
ALDCA-T            .g/cc                                   : ALDCA-T/ALD Average Den Corr RT 
ALDCLC-T           .g/cc                                   : ALDCLC-T/ALD LCRB Density Corr RT 
ARH16PC-T          .ohmm                                   : ARH16PC-T/Avg 16in 2M Ph Res RT 
ARM48PC-T          .ohmm                                   : ARM48PC-T/Avg 48in 500k Ph Res RT 
BGCGC-T            .api                                    : BGCGC-T/ABG Comb Gamma Ray BC RT 
GMGRCC-T           .api                                    : GMGRCC-T/GM Comb Gamma Ray RT BCor 
GMHSU-T            .in                                     : GMHSU-T/GM Hole Size Used RT 
PWEA               .ppg                                    : PWEA/PWD Annular EMW 
PWEAAF             .ppg                                    : PWEAAF/PWD Avg POff Annular EMW 
PWEANF             .ppg                                    : PWEANF/PWD Min POff Annular EMW 
PWEAXF             .ppg                                    : PWEAXF/PWD Max POff Annular EMW 
PWPA               .psig                                   : PWPA/PWD Annular Pressure 
PWPI               .psig                                   : PWPI/PWD Internal Pressure 
ROPA               .fph                                    : ROPA/Avg Rate of Penetration 
TNPL-T             .pu                                     : TNPL-T/CTN Porosity Limestone RT 
XBDEHC-T           .in                                     : XBDEHC-T/XCAL Eqv Hole Diam Cor RT 
~Ascii
11140.0    -9999      -9999      -9999      -9999      -9999      -9999      -9999      -9999      -9999      -9999      -9999      2.303217   -9999      -0.2619049 -0.2619049 -9999      -9999      -9999      23.81522   6.5        9.959104   -9999      -9999      -9999      5142.267   5819.584   8.727566   -9999      -9999     
11140.5    -9999      13541.43   -9999      -9999      -9999      -9999      -9999      -9999      -9999      -9999      -9999      2.370186   -9999      -0.2619039 -0.2619039 5000       3.525225   19.50729   24.4106    6.5        9.956465   -9999      -9999      -9999      5141.267   5819.584   8.735595   -9999      -9999     
11141      -9999      13536.39   2.429908   2.330238   2.429908   2.330238   2.429908   2.429908   2.429908   2.429908   2.330238   2.437155   2.330238   -0.261903  -0.261903  5000       3.943171   18.78605   25.00598   6.5        9.956465   -9999      -9999      -9999      5141.267   5819.584   8.719378   26.64752   5.699233  
11141.5    -9999      13531.36   2.449827   2.375075   2.449826   2.375075   2.449826   2.449826   2.449826   2.449826   2.375075   2.504124   2.375074   -0.261902  -0.261902  5000       4.361117   21.9881    25.00598   6.5        9.954808   -9999      -9999      -9999      5140.767   5819.584   8.721432   25.99309   5.814677  
11142      -9999      13531.36   2.469746   2.419911   2.469746   2.419911   2.469746   2.469746   2.469746   2.469746   2.419911   2.504124   2.419911   -0.261902  -0.261902  5000       4.361117   21.48776   25.00598   6.5        9.953152   -9999      -9999      -9999      5140.267   5819.584   8.726464   25.33866   5.930121  
11142.5    -9999      13527.72   2.489665   2.464747   2.489665   2.464747   2.489665   2.489665   2.489665   2.489665   2.464747   2.502116   2.464747   -0.1525269 -0.1525269 4000.404   4.132479   22.19323   29.47134   6.5        9.953152   -9999      -9999      -9999      5140.267   5819.584   8.731673   24.68423   5.930121  
11143      -9999      13524.08   2.509584   2.509584   2.509584   2.509584   2.509584   2.509584   2.509584   2.509584   2.509584   2.500109   2.509584   -0.04315184 -0.04315184 3000.808   3.903841   24.76057   29.47134   6.5        9.95829    -9999      -9999      -9999      5143.267   5811.5     8.735765   24.68423   5.930121  
11143.5    -9999      13520.44   2.509584   2.509584   2.509584   2.509584   2.509584   2.509584   2.509584   2.509584   2.509584   2.498102   2.509584   0.06622324 0.06622324 2001.212   3.675204   26.83856   29.47134   6.5        9.963428   -9999      -9999      -9999      5146.267   5803.417   8.726007   24.68423   5.864412  
11144      -9999      13520.44   2.490995   2.490995   2.490995   2.490995   2.490995   2.490995   2.490995   2.490995   2.457778   2.496094   2.474386   0.1755983  0.1755983  1001.616   3.446566   28.67925   29.47134   6.5        9.968566   -9999      -9999      -9999      5149.267   5795.334   8.730872   24.47325   5.798703  
11144.5    -9999      13512.41   2.472406   2.472406   2.472406   2.472406   2.472406   2.472406   2.472406   2.472406   2.405972   2.496094   2.439189   0.1755983  0.1755983  2.020206   3.217929   27.2594    29.47134   6.5        9.968566   -9999      -9999      -9999      5149.267   5795.334   8.722061   24.26227   5.798703  
11145      -9999      13512.41   2.453818   2.453818   2.453818   2.453818   2.453818   2.453818   2.453818   2.453818   2.354167   2.482709   2.403992   0.1651822  0.1651822  2.020206   2.989291   27.2594    28.57826   6.5        9.96332    -9999      -9999      -9999      5146.934   5803.417   8.7347     24.05128   5.837413  
11145.5    -9999      13512.41   2.453818   2.453818   2.453818   2.453818   2.453818   2.453818   2.453818   2.453818   2.354167   2.469324   2.403992   0.1547661  0.1547661  2.020206   2.760653   26.21246   28.57826   6.5        9.958074   -9999      -9999      -9999      5144.601   5811.5     8.725075   23.84031   5.837413  
11146      -9999      13506.99   2.448337   2.435883   2.435883   2.435883   2.435883   2.46079    2.435883   2.435883   2.361145   2.455938   2.398514   0.14435    0.14435    2.225413   2.532016   24.48971   31.25747   6.5        9.952827   -9999      -9999      -9999      5142.267   5819.584   8.729467   23.84031   5.837413  
11146.5    -9999      13501.58   2.442856   2.417949   2.417949   2.417949   2.417949   2.467763   2.417949   2.417949   2.368123   2.455938   2.393036   0.14435    0.14435    2.43062    2.303378   26.3639    31.25747   6.5        9.952827   -9999      -9999      -9999      5142.267   5819.584   8.728672   23.95962   5.842918  
11147      -9999      13501.58   2.437375   2.400015   2.400015   2.400015   2.400015   2.474735   2.400015   2.400015   2.375102   2.455938   2.387558   0.14435    0.14435    2.43062    2.303378   25.46451   28.57826   6.5        9.952827   -9999      -9999      -9999      5142.267   5819.584   8.728438   24.07894   5.842918  
11147.5    -9999      13499.35   2.431894   2.38208    2.38208    2.38208    2.38208    2.481708   2.38208    2.38208    2.38208    2.421115   2.38208    0.1026862  0.1026862  2.394011   2.336758   24.56513   25.89905   6.5        9.941792   -9999      -9999      -9999      5137.267   5807.446   8.737256   24.19826   5.798756  
11148      213.8      13497.12   2.431894   2.38208    2.38208    2.38208    2.38208    2.481708   2.38208    2.38208    2.38208    2.386292   2.38208    0.06102241 0.06102241 2.357403   2.370138   23.66574   25.89905   6.5        9.941792   -9999      -9999      -9999      5137.267   5807.446   8.726788   24.31758   5.754594  
11148.5    -9999      13494.89   2.431894   2.38208    2.38208    2.38208    2.38208    2.481708   2.38208    2.38208    2.38208    2.351469   2.38208    0.01935862 0.01935862 2.320794   2.403518   22.76636   25.54141   5.75       9.941792   -9999      -9999      -9999      5137.267   5807.446   8.71258    24.4369    5.710432  
11149      -9999      13494.89   2.395026   2.370119   2.370119   2.419943   2.370119   2.419933   2.419943   2.370119   2.370119   2.351469   2.370119   0.01935862 0.01935862 2.320794   2.403518   21.86697   25.54141   5.75       9.943542   -9999      -9999      -9999      5138.601   5807.446   8.646569   24.4369    5.710432  
11149.5    -9999      10851.18   2.358158   2.358158   2.358158   2.457806   2.358158   2.358158   2.457806   2.358158   2.358158   2.351469   2.358158   0.01935862 0.01935862 2.375707   2.403518   21.86697   25.54141   5.75       9.945292   -9999      -9999      -9999      5139.934   5807.446   5.76438    25.28781   5.818824  
11150      -9999      8207.463   2.358158   2.358158   2.358158   2.457806   2.358158   2.358158   2.457806   2.358158   2.358158   2.363527   2.358158   0.03498329 0.03498329 2.43062    2.403518   28.24484   24.69003   5.75       9.947041   -9999      -9999      -9999      5141.267   5807.446   2.88219    26.13871   5.927217  
11150.5    -9999      5563.748   2.358158   2.358158   2.358158   2.457806   2.358158   2.358158   2.457806   2.358158   2.358158   2.375586   2.358158   0.05060796 0.05060796 2.43062    2.403518   25.05173   24.69003   5.75       9.947041   -9999      -9999      -9999      5141.267   5807.446   0          26.13871   6.03561   
11151      -9999      2920.032   2.294331   2.294331   2.294331   2.344155   2.294331   2.294331   2.344155   2.294331   2.294331   2.375586   2.294331   0.05060796 0.05060796 2.43062    2.403518   22.7781    19.58175   5.75       9.947041   -9999      -9999      -9999      5141.267   5807.446   0          26.13845   6.03561   
11151.5    -9999      276.3172   2.230504   2.230504   2.230504   2.230504   2.230504   2.230504   2.230504   2.230504   2.230504   2.375586   2.230504   0.05060796 0.05060796 2.215932   2.403518   11.84461   19.58175   5.75       9.951493   -9999      -9999      -9999      5143.934   5805.426   0.03813906 26.13819   6.03561   
11152      -9999      276.3172   2.230504   2.230504   2.230504   2.230504   2.230504   2.230504   2.230504   2.230504   2.230504   2.319295   2.230504   0.01935421 0.01935421 2.215932   2.403518   11.84461   18.62672   5.75       9.955947   -9999      -9999      -9999      5146.601   5803.407   4.032053   26.13793   5.977694  
