~Version
 VERS              .         2.0                           : CWLS LOG ASCII STANDARD - VERSION 2.0
 WRAP              .         NO                            : ONE LINE PER DEPTH STEP
 DLM               .         SPACE                         : DELIMITING CHARACTER(SPACE TAB OR COMMA)
~Well Information
#_______________________________________________________________________________
#
#PARAMETER_NAME    .UNIT     VALUE                         : DESCRIPTION
#_______________________________________________________________________________
STRT               .ft       11140                         : First reference value
STOP               .ft       11397.5                       : Last reference value
STEP               .ft       0.5                           : Step increment
NULL               .         -9999                         : Missing value
COMP               .                                       : Company
WELL               .         2/4-X-29 A                    : Well name
FLD                .                                       : Field
LOC                .                                       : Location
CNTY               .                                       : County
STAT               .                                       : State
CTRY               .                                       : Country
SRVC               .                                       : Service Company
DATE               .                                       : Date
API                .                                       : API number
~Parameter Information Block
#_______________________________________________________________________________
#
#PARAMETER_NAME    .UNIT     VALUE                         : DESCRIPTION
#_______________________________________________________________________________
SET                .         Run 400 Eko X_50              : 
TLFamily_ADTEMP-T  .         Tool Temperature              : 
TLFamily_ADXT      .         Exposure Time                 : 
TLFamily_ALCDBQ-T  .         Bottom Quadrant Density       : 
TLFamily_ALCDH-T   .         Density Image                 : 
TLFamily_ALCDLC-T  .         Best Rapid Sampling Density   : 
TLFamily_ALCDTQ-T  .         Top Quadrant Density          : 
TLFamily_ALDCA-T   .         Bulk Density Correction       : 
TLFamily_ALDCLC-T  .         Bulk Density Correction       : 
TLFamily_ARH16PC-T .         Shallow Phase Shift Resistivity: 
TLFamily_ARM48PC-T .         Deep Phase Shift Resistivity  : 
TLFamily_BGCGC-T   .         At Bit Gamma Ray              : 
TLFamily_DEPT      .         Measured Depth                : 
TLFamily_GMGRCC-T  .         Gamma Ray                     : 
TLFamily_GMHSU-T   .                                       : 
TLFamily_PWEA      .         PWD Equivalent Mud Weight     : 
TLFamily_PWEAAF    .         PWD Pumps Off Equivalent Mud Weight: 
TLFamily_PWEANF    .         PWD Min Pumps Off Equivalent Mud Weight: 
TLFamily_PWEAXF    .         PWD Max Pumps Off Equivalent Mud Weight: 
TLFamily_PWPA      .         PWD Annular Pressure          : 
TLFamily_PWPI      .                                       : 
TLFamily_ROPA      .         CPI Rate of Penetration       : 
TLFamily_TNPL-T    .         Limestone Neutron Porosity    : 
TLFamily_XBDEHC-T  .         Waveform Spectrum             : 
~Curve Information
#_______________________________________________________________________________
#
#LOGNAME           .UNIT     LOG_ID                        : DESCRIPTION
#_______________________________________________________________________________
DEPT               .ft                                     : DEPT/Depth 
ADTEMP-T           .degF                                   : ADTEMP-T/ADR Temperature RT 
ADXT               .min                                    : ADXT/ADR Formation Exp Time 
ALCDBQ-T           .g/cc                                   : ALCDBQ-T/ALD Comp Den B-Quad RT 
ALCDH-T[0]         .g/cc                                   : ALCDH-T/ALD Comp Den Azi HS RT 
ALCDH-T[1]         .g/cc                                   : ALCDH-T/ALD Comp Den Azi HS RT 
ALCDH-T[2]         .g/cc                                   : ALCDH-T/ALD Comp Den Azi HS RT 
ALCDH-T[3]         .g/cc                                   : ALCDH-T/ALD Comp Den Azi HS RT 
ALCDH-T[4]         .g/cc                                   : ALCDH-T/ALD Comp Den Azi HS RT 
ALCDH-T[5]         .g/cc                                   : ALCDH-T/ALD Comp Den Azi HS RT 
ALCDH-T[6]         .g/cc                                   : ALCDH-T/ALD Comp Den Azi HS RT 
ALCDH-T[7]         .g/cc                                   : ALCDH-T/ALD Comp Den Azi HS RT 
ALCDLC-T           .g/cc                                   : ALCDLC-T/ALD LCRB Comp Density RT 
ALCDTQ-T           .g/cc                                   : ALCDTQ-T/ALD Comp Den T-Quad RT 
ALDCA-T            .g/cc                                   : ALDCA-T/ALD Average Den Corr RT 
ALDCLC-T           .g/cc                                   : ALDCLC-T/ALD LCRB Density Corr RT 
ARH16PC-T          .ohmm                                   : ARH16PC-T/Avg 16in 2M Ph Res RT 
ARM48PC-T          .ohmm                                   : ARM48PC-T/Avg 48in 500k Ph Res RT 
BGCGC-T            .api                                    : BGCGC-T/ABG Comb Gamma Ray BC RT 
GMGRCC-T           .api                                    : GMGRCC-T/GM Comb Gamma Ray RT BCor 
GMHSU-T            .in                                     : GMHSU-T/GM Hole Size Used RT 
PWEA               .ppg                                    : PWEA/PWD Annular EMW 
PWEAAF             .ppg                                    : PWEAAF/PWD Avg POff Annular EMW 
PWEANF             .ppg                                    : PWEANF/PWD Min POff Annular EMW 
PWEAXF             .ppg                                    : PWEAXF/PWD Max POff Annular EMW 
PWPA               .psig                                   : PWPA/PWD Annular Pressure 
PWPI               .psig                                   : PWPI/PWD Internal Pressure 
ROPA               .fph                                    : ROPA/Avg Rate of Penetration 
TNPL-T             .pu                                     : TNPL-T/CTN Porosity Limestone RT 
XBDEHC-T           .in                                     : XBDEHC-T/XCAL Eqv Hole Diam Cor RT 
~Ascii
# ...
11277.5    -9999      141.6503   1.935112   1.935112   1.935112   1.935112   1.935112   1.935112   1.935112   1.935112   1.935112   1.93305    1.935112   -0.0116708 -0.0116708 25.69291   26.05246   8.055004   9.343541   5.75       -9999      -9999      -9999      -9999      -9999      -9999      99.83208   35.12087   -9999     
11278      -9999      141.9669   1.935112   1.935112   1.935112   1.935112   1.935112   1.935112   1.935112   1.935112   1.935112   1.93305    1.935112   -0.0116708 -0.0116708 22.58068   24.01351   8.345226   8.773396   5.75       -9999      -9999      -9999      -9999      -9999      -9999      99.70797   35.59267   -9999     
11278.5    -9999      142.2836   1.999028   1.999028   1.999028   1.999028   1.999028   1.999028   1.999028   1.999028   1.999028   1.93305    1.999028   -0.0116708 -0.0116708 19.46845   21.97456   4.55562    8.513803   5.75       10.30501   -9999      -9999      -9999      5392.266   6036.136   99.70798   36.06448   -9999     
11279      -9999      142.2836   1.999028   1.999028   1.999028   1.999028   1.999028   1.999028   1.999028   1.999028   1.999028   2.013587   1.999028   0.01958089 0.01958089 19.46845   21.97456   4.55562    8.513803   5.75       10.30501   -9999      -9999      -9999      5392.266   6036.136   98.46725   36.53629   -9999     
11279.5    -9999      142.4253   2.044286   2.044286   2.01101    2.044286   2.044286   2.044286   2.044286   2.044286   2.044286   2.013587   2.044286   0.01958089 0.01958089 20.91682   21.97456   5.466743   8.513803   5.75       -9999      -9999      -9999      -9999      -9999      -9999      92.80703   36.53629   -9999     
11280      -9999      142.567    2.089545   2.089545   2.022992   2.089545   2.089545   2.089545   2.089545   2.089545   2.089545   2.061891   2.089545   0.02999678 0.02999678 22.36518   21.97456   6.377867   8.513803   5.75       -9999      -9999      -9999      -9999      -9999      -9999      92.48134   35.9693    -9999     
11280.5    -9999      142.567    2.134803   2.134803   2.034974   2.134803   2.134803   2.134803   2.134803   2.134803   2.134803   2.110195   2.134803   0.04041267 0.04041267 22.36518   21.97456   6.377867   6.811043   5.75       -9999      -9999      -9999      -9999      -9999      -9999      98.18943   35.40232   -9999     
11281      -9999      142.3836   2.134803   2.134803   2.034974   2.134803   2.134803   2.134803   2.134803   2.134803   2.134803   2.158499   2.134803   0.05082856 0.05082856 20.91682   20.65766   6.074159   6.811043   5.75       -9999      -9999      -9999      -9999      -9999      -9999      63.07511   34.83533   -9999     
11281.5    -9999      142.2003   2.082896   2.032964   1.98305    2.032964   2.082896   2.082896   2.082896   2.032964   2.032964   2.158499   2.032964   0.05082856 0.05082856 19.46845   19.34076   5.770452   8.481042   5.75       -9999      -9999      -9999      -9999      -9999      -9999      3.807755   34.83533   -9999     
11282      -9999      142.2003   2.030989   1.931126   1.931126   1.931126   2.030989   2.030989   2.030989   1.931126   1.931126   2.158499   1.931126   0.05082856 0.05082856 19.46845   19.34076   5.466743   9.365184   5.75       -9999      -9999      -9999      -9999      -9999      -9999      28.62998   35.40268   -9999     
11282.5    -9999      142.0586   2.030989   1.931126   1.931126   1.931126   2.030989   2.030989   2.030989   1.931126   1.931126   2.037755   1.931126   -0.04289504 -0.04289504 17.45925   18.55174   5.609451   8.17979    5.75       -9999      -9999      -9999      -9999      -9999      -9999      88.60119   35.97003   -9999     
11283      -9999      141.9169   2.07891    2.028979   2.028979   2.028979   2.07891    2.07891    2.028994   2.028979   2.028979   2.037755   2.028979   -0.04289504 -0.04289504 15.45005   17.76271   7.127626   7.707657   5.75       -9999      -9999      -9999      -9999      -9999      -9999      91.91779   36.53738   -9999     
11283.5    -9999      141.9169   2.126832   2.126832   2.126832   2.126832   2.126832   2.126832   2.027      2.126832   2.126832   2.069962   2.126832   -0.0116409 -0.0116409 15.45005   17.76271   7.288991   6.829426   5.75       -9999      -9999      -9999      -9999      -9999      -9999      20.6105    36.53738   -9999     
11284      -9999      142.7614   2.126832   2.126832   2.126832   2.126832   2.126832   2.126832   2.027      2.126832   2.126832   2.102168   2.126832   0.01961325 0.01961325 15.21735   17.27961   8.200115   6.811043   5.75       -9999      -9999      -9999      -9999      -9999      -9999      7.541786   34.77757   -9999     
11284.5    -9999      143.6058   2.058937   2.108859   2.058937   2.058937   2.058937   2.058937   2.009021   2.108859   2.058937   2.102168   2.083898   0.01961325 0.01961325 14.98465   16.79652   8.200115   7.402795   5.75       -9999      -9999      -9999      -9999      -9999      -9999      63.97338   33.01777   -9999     
11285      -9999      144.4503   1.991042   2.090886   1.991042   1.991042   1.991042   1.991042   1.991042   2.090886   1.991042   2.102168   2.040964   0.01961325 0.01961325 14.75195   16.31342   8.200115   8.513803   5.75       -9999      -9999      -9999      -9999      -9999      -9999      74.29594   31.25797   -9999     
11285.5    -9999      144.4503   1.991042   2.090886   1.991042   1.991042   1.991042   1.991042   1.991042   2.090886   1.991042   2.106187   2.040964   0.01959941 0.01959941 14.75195   16.31342   8.503823   8.513803   5.75       -9999      -9999      -9999      -9999      -9999      -9999      78.80795   29.49816   -9999     
11286      -9999      144.7336   1.991042   2.090886   1.991042   1.991042   1.991042   1.991042   1.991042   2.090886   1.991042   2.110206   2.040964   0.01958557 0.01958557 13.50651   15.33578   8.807531   10.21657   5.75       -9999      -9999      -9999      -9999      -9999      -9999      88.51543   29.49816   -9999     
11286.5    -9999      145.017    2.042962   2.092884   2.042962   2.042962   2.042962   2.042962   2.042962   2.092884   2.042962   2.110206   2.067923   0.01958557 0.01958557 12.26107   14.35815   9.111239   10.21657   5.75       -9999      -9999      -9999      -9999      -9999      -9999      93.76406   30.20007   -9999     
11287      -9999      145.017    2.094882   2.094882   2.094882   2.094882   2.094882   2.094882   2.094882   2.094882   2.094882   2.110206   2.094882   0.01958557 0.01958557 12.26107   14.35815   9.111239   10.21657   5.75       -9999      -9999      -9999      -9999      -9999      -9999      90.61621   30.90198   -9999     
11287.5    -9999      145.017    2.094882   2.094882   2.094882   2.094882   2.094882   2.094882   2.094882   2.094882   2.094882   2.078009   2.094882   0.01959534 0.01959534 12.26107   14.35815   9.111239   9.824216   5.75       -9999      -9999      -9999      -9999      -9999      -9999      72.62927   30.90198   -9999     
11288      -9999      143.9669   2.108192   2.108192   2.108192   2.108192   2.108192   2.108192   2.108192   2.074916   2.108192   2.078009   2.108192   0.01959534 0.01959534 12.26107   14.05904   7.744554   9.365184   5.75       -9999      -9999      -9999      -9999      -9999      -9999      59.81636   30.90198   -9999     
11288.5    -9999      142.9169   2.121503   2.121503   2.121503   2.121503   2.121503   2.121503   2.121503   2.05495    2.121503   2.091427   2.121503   0.03001451 0.03001451 12.26107   13.75993   6.377867   10.23516   5.75       -9999      -9999      -9999      -9999      -9999      -9999      50.7644    30.06048   -9999     
11289      -9999      142.9169   2.134813   2.134813   2.134813   2.134813   2.134813   2.134813   2.134813   2.034984   2.134813   2.104845   2.134813   0.04043367 0.04043367 12.26107   13.75993   6.377867   11.06794   5.75       -9999      -9999      -9999      -9999      -9999      -9999      7.400677   29.21898   -9999     
11289.5    -9999      142.9169   2.134813   2.134813   2.134813   2.134813   2.134813   2.134813   2.134813   2.034984   2.134813   2.118263   2.134813   0.05085284 0.05085284 12.26107   13.75993   6.605648   10.40629   5.75       -9999      -9999      -9999      -9999      -9999      -9999      3.497128   28.37749   -9999     
