~Version
 VERS              .         2.0                           : CWLS LOG ASCII STANDARD - VERSION 2.0
 WRAP              .         NO                            : ONE LINE PER DEPTH STEP
 DLM               .         SPACE                         : DELIMITING CHARACTER(SPACE TAB OR COMMA)
~Well Information
#_______________________________________________________________________________
#
#PARAMETER_NAME    .UNIT     VALUE                         : DESCRIPTION
#_______________________________________________________________________________
STRT               .ft       11140                         : First reference value
STOP               .ft       11397.5                       : Last reference value
STEP               .ft       0.5                           : Step increment
NULL               .         -9999                         : Missing value
COMP               .                                       : Company
WELL               .         2/4-X-29 A                    : Well name
FLD                .                                       : Field
LOC                .                                       : Location
CNTY               .                                       : County
STAT               .                                       : State
CTRY               .                                       : Country
SRVC               .                                       : Service Company
DATE               .                                       : Date
API                .                                       : API number
~Parameter Information Block
#_______________________________________________________________________________
#
#PARAMETER_NAME    .UNIT     VALUE                         : DESCRIPTION
#_______________________________________________________________________________
SET                .         Run 400 Eko X_50              : 
TLFamily_ADTEMP-T  .         Tool Temperature              : 
TLFamily_ADXT      .         Exposure Time                 : 
TLFamily_ALCDBQ-T  .         Bottom Quadrant Density       : 
TLFamily_ALCDH-T   .         Density Image                 : 
TLFamily_ALCDLC-T  .         Best Rapid Sampling Density   : 
TLFamily_ALCDTQ-T  .         Top Quadrant Density          : 
TLFamily_ALDCA-T   .         Bulk Density Correction       : 
TLFamily_ALDCLC-T  .         Bulk Density Correction       : 
TLFamily_ARH16PC-T .         Shallow Phase Shift Resistivity: 
TLFamily_ARM48PC-T .         Deep Phase Shift Resistivity  : 
TLFamily_BGCGC-T   .         At Bit Gamma Ray              : 
TLFamily_DEPT      .         Measured Depth                : 
TLFamily_GMGRCC-T  .         Gamma Ray                     : 
TLFamily_GMHSU-T   .                                       : 
TLFamily_PWEA      .         PWD Equivalent Mud Weight     : 
TLFamily_PWEAAF    .         PWD Pumps Off Equivalent Mud Weight: 
TLFamily_PWEANF    .         PWD Min Pumps Off Equivalent Mud Weight: 
TLFamily_PWEAXF    .         PWD Max Pumps Off Equivalent Mud Weight: 
TLFamily_PWPA      .         PWD Annular Pressure          : 
TLFamily_PWPI      .                                       : 
TLFamily_ROPA      .         CPI Rate of Penetration       : 
TLFamily_TNPL-T    .         Limestone Neutron Porosity    : 
TLFamily_XBDEHC-T  .         Waveform Spectrum             : 
~Curve Information
#_______________________________________________________________________________
#
#LOGNAME           .UNIT     LOG_ID                        : DESCRIPTION
#_______________________________________________________________________________
DEPT               .ft                                     : DEPT/Depth 
ADTEMP-T           .degF                                   : ADTEMP-T/ADR Temperature RT 
ADXT               .min                                    : ADXT/ADR Formation Exp Time 
ALCDBQ-T           .g/cc                                   : ALCDBQ-T/ALD Comp Den B-Quad RT 
ALCDH-T[0]         .g/cc                                   : ALCDH-T/ALD Comp Den Azi HS RT 
ALCDH-T[1]         .g/cc                                   : ALCDH-T/ALD Comp Den Azi HS RT 
ALCDH-T[2]         .g/cc                                   : ALCDH-T/ALD Comp Den Azi HS RT 
ALCDH-T[3]         .g/cc                                   : ALCDH-T/ALD Comp Den Azi HS RT 
ALCDH-T[4]         .g/cc                                   : ALCDH-T/ALD Comp Den Azi HS RT 
ALCDH-T[5]         .g/cc                                   : ALCDH-T/ALD Comp Den Azi HS RT 
ALCDH-T[6]         .g/cc                                   : ALCDH-T/ALD Comp Den Azi HS RT 
ALCDH-T[7]         .g/cc                                   : ALCDH-T/ALD Comp Den Azi HS RT 
ALCDLC-T           .g/cc                                   : ALCDLC-T/ALD LCRB Comp Density RT 
ALCDTQ-T           .g/cc                                   : ALCDTQ-T/ALD Comp Den T-Quad RT 
ALDCA-T            .g/cc                                   : ALDCA-T/ALD Average Den Corr RT 
ALDCLC-T           .g/cc                                   : ALDCLC-T/ALD LCRB Density Corr RT 
ARH16PC-T          .ohmm                                   : ARH16PC-T/Avg 16in 2M Ph Res RT 
ARM48PC-T          .ohmm                                   : ARM48PC-T/Avg 48in 500k Ph Res RT 
BGCGC-T            .api                                    : BGCGC-T/ABG Comb Gamma Ray BC RT 
GMGRCC-T           .api                                    : GMGRCC-T/GM Comb Gamma Ray RT BCor 
GMHSU-T            .in                                     : GMHSU-T/GM Hole Size Used RT 
PWEA               .ppg                                    : PWEA/PWD Annular EMW 
PWEAAF             .ppg                                    : PWEAAF/PWD Avg POff Annular EMW 
PWEANF             .ppg                                    : PWEANF/PWD Min POff Annular EMW 
PWEAXF             .ppg                                    : PWEAXF/PWD Max POff Annular EMW 
PWPA               .psig                                   : PWPA/PWD Annular Pressure 
PWPI               .psig                                   : PWPI/PWD Internal Pressure 
ROPA               .fph                                    : ROPA/Avg Rate of Penetration 
TNPL-T             .pu                                     : TNPL-T/CTN Porosity Limestone RT 
XBDEHC-T           .in                                     : XBDEHC-T/XCAL Eqv Hole Diam Cor RT 
~Ascii
# ...
11190      -9999      92.28352   2.134722   2.134722   2.134722   2.134722   2.134722   2.134722   2.134722   2.134722   2.134722   2.08865    2.134722   -0.0118625 -0.0118625 7.373008   7.583434   12.75573   12.77071   5.75       10.05934   -9999      -9999      -9999      5219.267   5880.653   47.59844   25.2858    5.774327  
11190.5    -9999      91.78352   2.134722   2.134722   2.134722   2.134722   2.134722   2.134722   2.134722   2.134722   2.134722   2.123534   2.134722   -0.0118623 -0.0118623 8.470044   8.616134   12.75573   11.91932   5.75       10.05934   -9999      -9999      -9999      5219.267   5880.653   47.6128    25.56969   5.727124  
11191      -9999      91.78352   2.116752   2.141707   2.141707   2.116752   2.116752   2.116752   2.116752   2.116752   2.141707   2.158418   2.141707   -0.01186209 -0.01186209 8.470044   8.616134   18.22248   11.91932   5.75       10.05934   -9999      -9999      -9999      5219.267   5880.653   47.54882   25.56969   5.713118  
11191.5    -9999      91.78352   2.098783   2.148692   2.148692   2.098783   2.098783   2.098783   2.098783   2.098783   2.148692   2.158418   2.148692   -0.01186209 -0.01186209 8.470044   8.616134   18.22248   11.91932   5.75       10.09844   -9999      -9999      -9999      5240.267   5911.427   47.81273   24.42732   5.768982  
11192      -9999      91.40018   2.080813   2.155677   2.155677   2.080813   2.080813   2.080813   2.080813   2.080813   2.155677   2.118162   2.155677   -0.01186561 -0.01186561 10.67302   10.21506   18.22248   14.04778   5.75       10.09844   -9999      -9999      -9999      5240.267   5911.427   47.55038   23.28495   5.768982  
11192.5    -9999      91.40018   2.062844   2.162662   2.162662   2.062844   2.062844   2.062844   2.062844   2.062844   2.162662   2.077906   2.162662   -0.01186913 -0.01186913 10.67302   10.21506   10.02236   16.17623   5.75       10.09675   -9999      -9999      -9999      5239.664   5911.427   45.26521   22.14258   5.821722  
11193      213.8      91.12102   2.062844   2.162662   2.162662   2.062844   2.062844   2.062844   2.062844   2.062844   2.162662   2.03765    2.162662   -0.01187264 -0.01187264 12.24149   10.95796   10.02236   16.17623   5.75       10.09563   -9999      -9999      -9999      5239.267   5911.427   46.002     24.89157   5.684252  
11193.5    213.8      90.84185   2.073491   2.140036   2.140036   2.073491   2.073491   2.073491   2.073491   2.073491   2.140036   1.997394   2.140036   -0.01187616 -0.01187616 13.80996   11.70085   10.02236   16.17623   5.75       10.09563   -9999      -9999      -9999      5239.267   5880.653   50.28895   27.54614   5.660381  
11194      -9999      90.56268   2.084137   2.11741    2.11741    2.084137   2.084137   2.084137   2.084137   2.084137   2.11741    1.997394   2.11741    -0.01187616 -0.01187616 15.37844   12.44374   7.288991   13.90588   5.75       10.08863   -9999      -9999      -9999      5236.267   5880.653   51.61645   27.82733   5.583444  
11194.5    -9999      90.28352   2.094784   2.094784   2.094784   2.094784   2.094784   2.094784   2.094784   2.094784   2.094784   1.997394   2.094784   -0.01187616 -0.01187616 16.94691   13.18664   7.288991   11.63553   5.75       10.08863   -9999      -9999      -9999      5236.267   5880.653   51.65452   28.10852   5.714147  
11195      -9999      90.28352   2.094784   2.094784   2.094784   2.094784   2.094784   2.094784   2.094784   2.094784   2.094784   2.016184   2.094784   -0.01187371 -0.01187371 16.94691   13.18664   7.288991   9.365184   5.75       10.111     -9999      -9999      -9999      5248.267   5905.31    51.6318    28.10852   5.819239  
11195.5    -9999      90.01129   2.094789   2.094789   2.094789   2.094789   2.094789   2.094789   2.094789   2.094789   2.094789   2.034974   2.094789   -0.01187125 -0.01187125 15.38496   12.828     8.200115   9.365184   5.75       10.13337   -9999      -9999      -9999      5260.266   5929.967   50.77304   28.24863   5.697502  
11196      -9999      89.73907   2.094789   2.094789   2.094789   2.094789   2.094789   2.094789   2.094789   2.094789   2.094789   2.053764   2.094789   -0.0118688 -0.0118688 13.82301   12.46936   9.111239   10.21656   5.75       10.13337   -9999      -9999      -9999      5260.266   5929.967   48.88515   28.38875   5.575765  
11196.5    -9999      89.46684   2.10477    2.10477    2.10477    2.10477    2.10477    2.10477    2.10477    2.10477    2.10477    2.053764   2.10477    -0.0118688 -0.0118688 12.26107   12.11071   9.111239   11.06794   5.75       10.06108   -9999      -9999      -9999      5223.267   5890.003   47.49202   28.52886   5.575765  
11197      -9999      89.46684   2.114752   2.114752   2.114752   2.114752   2.114752   2.114752   2.114752   2.114752   2.114752   2.053764   2.114752   -0.0118688 -0.0118688 12.26107   12.11071   9.111239   11.91932   5.75       10.07988   -9999      -9999      -9999      5233.109   5850.039   47.33266   28.66897   5.575765  
11197.5    -9999      88.97517   2.124733   2.124733   2.124733   2.124733   2.124733   2.124733   2.124733   2.124733   2.124733   2.09401    2.124733   -0.001458133 -0.001458133 11.22592   11.38494   8.200115   11.91932   5.75       10.13554   -9999      -9999      -9999      5262.266   5850.039   47.44653   28.66897   5.741812  
11198      -9999      88.48351   2.134714   2.134714   2.134714   2.134714   2.134714   2.134714   2.134714   2.134714   2.134714   2.134257   2.134714   0.008952529 0.008952529 10.19077   10.65917   8.200115   11.91932   5.75       10.13554   -9999      -9999      -9999      5262.266   5936.161   47.29122   28.20054   5.741812  
11198.5    -9999      88.48351   2.134714   2.134714   2.134714   2.134714   2.134714   2.134714   2.134714   2.134714   2.134714   2.174503   2.134714   0.01936319 0.01936319 10.19077   10.65917   10.47792   11.70648   5.75       10.15173   -9999      -9999      -9999      5271.266   5936.161   47.40553   27.73211   5.741812  
11199      -9999      88.02934   2.116084   2.116084   2.116084   2.116084   2.116084   2.116084   2.116084   2.116084   2.116084   2.174503   2.116084   0.01936319 0.01936319 10.07565   10.33977   12.75573   11.49364   5.75       10.16325   -9999      -9999      -9999      5277.389   5936.161   47.34443   27.26368   5.736281  
11199.5    -9999      87.57518   2.097454   2.097454   2.097454   2.097454   2.097454   2.097454   2.097454   2.097454   2.097454   2.174503   2.097454   0.01936319 0.01936319 9.960539   10.02038   12.75573   11.28079   5.75       10.18936   -9999      -9999      -9999      5291.266   5936.161   47.37126   27.26368   5.736281  
11200      -9999      87.12101   2.078824   2.078824   2.078824   2.078824   2.078824   2.078824   2.078824   2.078824   2.078824   2.144994   2.078824   0.008958341 0.008958341 9.845425   9.700989   12.75573   11.06794   5.75       10.17838   -9999      -9999      -9999      5285.786   5939.758   47.38979   27.12207   5.747368  
11200.5    -9999      86.66684   2.078824   2.078824   2.078824   2.078824   2.078824   2.078824   2.078824   2.078824   2.078824   2.115485   2.078824   -0.00144651 -0.00144651 9.730309   9.381597   11.5409    11.06794   5.75       10.16531   -9999      -9999      -9999      5279.266   5942.36    47.30486   26.98045   5.758456  
11201      -9999      86.66684   2.098786   2.098786   2.098786   2.098786   2.098786   2.098786   2.098786   2.098786   2.098786   2.085976   2.098786   -0.01185136 -0.01185136 9.730309   9.381597   10.32607   11.06794   5.75       10.18763   -9999      -9999      -9999      5291.104   5949.88    47.42104   26.83883   5.769543  
11201.5    -9999      86.66684   2.118749   2.118749   2.118749   2.118749   2.118749   2.118749   2.118749   2.118749   2.118749   2.085976   2.118749   -0.01185136 -0.01185136 9.730309   9.381597   9.111239   11.70648   5.75       10.21245   -9999      -9999      -9999      5304.266   5954.779   47.212     26.69722   5.769543  
11202      -9999      86.24461   2.118749   2.118749   2.118749   2.118749   2.118749   2.118749   2.118749   2.118749   2.118749   2.110122   2.118749   -0.01186113 -0.01186113 8.727465   8.892106   9.111239   12.34502   5.75       10.15464   9.634853   9.634853   9.879369   5274.519   5964.212   47.38983   26.69722   5.783489  
