~Version
 VERS              .         2.0                           : CWLS LOG ASCII STANDARD - VERSION 2.0
 WRAP              .         NO                            : ONE LINE PER DEPTH STEP
 DLM               .         SPACE                         : DELIMITING CHARACTER(SPACE TAB OR COMMA)
~Well Information
#_______________________________________________________________________________
#
#PARAMETER_NAME    .UNIT     VALUE                         : DESCRIPTION
#_______________________________________________________________________________
STRT               .ft       11140                         : First reference value
STOP               .ft       11397.5                       : Last reference value
STEP               .ft       0.5                           : Step increment
NULL               .         -9999                         : Missing value
COMP               .                                       : Company
WELL               .         2/4-X-29 A                    : Well name
FLD                .                                       : Field
LOC                .                                       : Location
CNTY               .                                       : County
STAT               .                                       : State
CTRY               .                                       : Country
SRVC               .                                       : Service Company
DATE               .                                       : Date
API                .                                       : API number
~Parameter Information Block
#_______________________________________________________________________________
#
#PARAMETER_NAME    .UNIT     VALUE                         : DESCRIPTION
#_______________________________________________________________________________
SET                .         Run 400 Eko X_50              : 
TLFamily_ADTEMP-T  .         Tool Temperature              : 
TLFamily_ADXT      .         Exposure Time                 : 
TLFamily_ALCDBQ-T  .         Bottom Quadrant Density       : 
TLFamily_ALCDH-T   .         Density Image                 : 
TLFamily_ALCDLC-T  .         Best Rapid Sampling Density   : 
TLFamily_ALCDTQ-T  .         Top Quadrant Density          : 
TLFamily_ALDCA-T   .         Bulk Density Correction       : 
TLFamily_ALDCLC-T  .         Bulk Density Correction       : 
TLFamily_ARH16PC-T .         Shallow Phase Shift Resistivity: 
TLFamily_ARM48PC-T .         Deep Phase Shift Resistivity  : 
TLFamily_BGCGC-T   .         At Bit Gamma Ray              : 
TLFamily_DEPT      .         Measured Depth                : 
TLFamily_GMGRCC-T  .         Gamma Ray                     : 
TLFamily_GMHSU-T   .                                       : 
TLFamily_PWEA      .         PWD Equivalent Mud Weight     : 
TLFamily_PWEAAF    .         PWD Pumps Off Equivalent Mud Weight: 
TLFamily_PWEANF    .         PWD Min Pumps Off Equivalent Mud Weight: 
TLFamily_PWEAXF    .         PWD Max Pumps Off Equivalent Mud Weight: 
TLFamily_PWPA      .         PWD Annular Pressure          : 
TLFamily_PWPI      .                                       : 
TLFamily_ROPA      .         CPI Rate of Penetration       : 
TLFamily_TNPL-T    .         Limestone Neutron Porosity    : 
TLFamily_XBDEHC-T  .         Waveform Spectrum             : 
~Curve Information
#_______________________________________________________________________________
#
#LOGNAME           .UNIT     LOG_ID                        : DESCRIPTION
#_______________________________________________________________________________
DEPT               .ft                                     : DEPT/Depth 
ADTEMP-T           .degF                                   : ADTEMP-T/ADR Temperature RT 
ADXT               .min                                    : ADXT/ADR Formation Exp Time 
ALCDBQ-T           .g/cc                                   : ALCDBQ-T/ALD Comp Den B-Quad RT 
ALCDH-T[0]         .g/cc                                   : ALCDH-T/ALD Comp Den Azi HS RT 
ALCDH-T[1]         .g/cc                                   : ALCDH-T/ALD Comp Den Azi HS RT 
ALCDH-T[2]         .g/cc                                   : ALCDH-T/ALD Comp Den Azi HS RT 
ALCDH-T[3]         .g/cc                                   : ALCDH-T/ALD Comp Den Azi HS RT 
ALCDH-T[4]         .g/cc                                   : ALCDH-T/ALD Comp Den Azi HS RT 
ALCDH-T[5]         .g/cc                                   : ALCDH-T/ALD Comp Den Azi HS RT 
ALCDH-T[6]         .g/cc                                   : ALCDH-T/ALD Comp Den Azi HS RT 
ALCDH-T[7]         .g/cc                                   : ALCDH-T/ALD Comp Den Azi HS RT 
ALCDLC-T           .g/cc                                   : ALCDLC-T/ALD LCRB Comp Density RT 
ALCDTQ-T           .g/cc                                   : ALCDTQ-T/ALD Comp Den T-Quad RT 
ALDCA-T            .g/cc                                   : ALDCA-T/ALD Average Den Corr RT 
ALDCLC-T           .g/cc                                   : ALDCLC-T/ALD LCRB Density Corr RT 
ARH16PC-T          .ohmm                                   : ARH16PC-T/Avg 16in 2M Ph Res RT 
ARM48PC-T          .ohmm                                   : ARM48PC-T/Avg 48in 500k Ph Res RT 
BGCGC-T            .api                                    : BGCGC-T/ABG Comb Gamma Ray BC RT 
GMGRCC-T           .api                                    : GMGRCC-T/GM Comb Gamma Ray RT BCor 
GMHSU-T            .in                                     : GMHSU-T/GM Hole Size Used RT 
PWEA               .ppg                                    : PWEA/PWD Annular EMW 
PWEAAF             .ppg                                    : PWEAAF/PWD Avg POff Annular EMW 
PWEANF             .ppg                                    : PWEANF/PWD Min POff Annular EMW 
PWEAXF             .ppg                                    : PWEAXF/PWD Max POff Annular EMW 
PWPA               .psig                                   : PWPA/PWD Annular Pressure 
PWPI               .psig                                   : PWPI/PWD Internal Pressure 
ROPA               .fph                                    : ROPA/Avg Rate of Penetration 
TNPL-T             .pu                                     : TNPL-T/CTN Porosity Limestone RT 
XBDEHC-T           .in                                     : XBDEHC-T/XCAL Eqv Hole Diam Cor RT 
~Ascii
# ...
11152.5    -9999      276.3172   2.262415   2.262415   2.262415   2.262415   2.262415   2.262415   2.262415   2.262415   2.262415   2.263004   2.262415   -0.01189955 -0.01189955 2.215932   2.403518   15.48911   17.87899   5.75       9.9604     -9999      -9999      -9999      5149.267   5801.387   16.11404   26.13793   5.919777  
11153      -9999      217.2893   2.294327   2.294327   2.294327   2.294327   2.294327   2.294327   2.294327   2.294327   2.294327   2.263004   2.294327   -0.01189955 -0.01189955 2.452091   2.59349    15.48911   17.87899   5.75       9.9604     -9999      -9999      -9999      5149.267   5801.387   4.876507   26.13793   5.919777  
11153.5    -9999      158.2614   2.326238   2.326238   2.326238   2.326238   2.326238   2.326238   2.326238   2.326238   2.326238   2.263004   2.326238   -0.01189955 -0.01189955 2.688251   2.783462   23.65831   23.83865   5.75       9.964195   -9999      -9999      -9999      5151.517   5803.407   0          26.70293   5.882675  
11154      -9999      99.23353   2.35815    2.35815    2.35815    2.35815    2.35815    2.35815    2.35815    2.35815    2.35815    2.31929    2.35815    0.01934401 0.01934401 2.92441    2.973433   25.51147   23.83865   5.75       9.967991   -9999      -9999      -9999      5153.767   5805.426   0          26.70293   5.845572  
11154.5    -9999      99.23353   2.35815    2.35815    2.35815    2.35815    2.35815    2.35815    2.35815    2.35815    2.35815    2.375577   2.35815    0.05058758 0.05058758 2.92441    2.973433   20.50029   22.13589   5.75       9.971786   -9999      -9999      -9999      5156.017   5807.446   4.508667   26.70293   5.80847   
11155      -9999      98.45385   2.334217   2.334217   2.334217   2.334217   2.334217   2.334217   2.334217   2.334217   2.334217   2.375577   2.334217   0.05058758 0.05058758 3.478075   3.300182   15.48911   20.43313   5.75       9.975581   -9999      -9999      -9999      5158.267   5807.446   16.56798   22.14481   5.771368  
11155.5    -9999      97.91686   2.310284   2.310284   2.310284   2.310284   2.310284   2.310284   2.310284   2.310284   2.310284   2.375577   2.310284   0.05058758 0.05058758 3.859404   3.525225   17.71013   20.43313   5.75       9.975581   -9999      -9999      -9999      5158.267   5807.446   31.59143   22.14481   5.771368  
11156      -9999      97.91686   2.286352   2.286351   2.286351   2.286351   2.286351   2.286351   2.286351   2.286351   2.286351   2.351454   2.286352   0.0349622  0.0349622  3.859404   3.525225   18.22248   18.73037   5.75       9.972564   -9999      -9999      -9999      5157.017   5813.518   39.66892   23.19256   5.708816  
11156.5    -9999      94.90019   2.262419   2.262419   2.262419   2.262419   2.262419   2.262419   2.262419   2.262419   2.262419   2.327331   2.262419   0.01933683 0.01933683 3.518516   3.525225   22.7781    18.73037   5.75       9.969545   -9999      -9999      -9999      5155.767   5819.59    22.93837   24.2403    5.646264  
11157      213.8      94.90019   2.262419   2.262419   2.262419   2.262419   2.262419   2.262419   2.262419   2.262419   2.262419   2.303208   2.262419   0.003711451 0.003711451 3.518516   3.525225   22.7781    19.15606   5.75       9.966528   -9999      -9999      -9999      5154.517   5825.662   14.79414   25.28805   5.583713  
11157.5    213.8      94.26229   2.262419   2.262419   2.262419   2.262419   2.262419   2.262419   2.262419   2.262419   2.262419   2.279085   2.262419   -0.01191392 -0.01191392 3.359536   3.37835    23.08181   19.58175   5.75       9.963511   -9999      -9999      -9999      5153.267   5825.662   12.29236   25.28805   5.583713  
11158      -9999      95.10959   2.275721   2.30895    2.27572    2.27572    2.27572    2.27572    2.27572    2.30895    2.27572    2.279085   2.292336   -0.01191392 -0.01191392 3.359536   3.37835    23.38551   19.58175   5.75       9.963511   -9999      -9999      -9999      5153.267   5825.662   46.55288   25.28805   5.583713  
11158.5    -9999      95.38352   2.289022   2.355482   2.289022   2.289022   2.289022   2.289022   2.289022   2.355482   2.289022   2.279085   2.322252   -0.01191392 -0.01191392 3.359536   3.37835    23.68922   20.85882   5.75       9.96596    -9999      -9999      -9999      5154.867   5826.879   116.2843   25.19366   5.63168   
11159      -9999      110.2669   2.302324   2.402014   2.302324   2.302324   2.302324   2.302324   2.302324   2.402014   2.302324   2.292494   2.352169   -0.01190353 -0.01190353 3.439026   3.37835    23.68922   22.13589   5.75       9.968409   -9999      -9999      -9999      5156.467   5828.096   73.44835   25.09926   5.679648  
11159.5    -9999      125.1503   2.302324   2.402014   2.302324   2.302324   2.302324   2.302324   2.302324   2.402014   2.302324   2.305902   2.352169   -0.01189313 -0.01189313 3.518516   3.37835    20.95585   22.13589   5.75       9.970859   -9999      -9999      -9999      5158.067   5829.313   8.687763   25.00487   5.727616  
11160      -9999      125.1503   2.302324   2.402014   2.302324   2.302324   2.302324   2.302324   2.302324   2.402014   2.302324   2.319311   2.352169   -0.01188273 -0.01188273 3.518516   3.37835    18.22248   22.13589   5.75       9.973308   -9999      -9999      -9999      5159.667   5830.53    33.25726   25.00487   5.727616  
11160.5    -9999      124.3891   2.281575   2.361327   2.281575   2.281575   2.281575   2.281575   2.281575   2.361327   2.281575   2.319311   2.321451   -0.01188273 -0.01188273 3.465523   3.331432   18.22248   22.56158   5.75       9.975757   -9999      -9999      -9999      5161.267   5831.747   43.68686   24.86294   5.696609  
11161      -9999      123.628    2.260827   2.320641   2.260827   2.260827   2.260827   2.260827   2.260827   2.320641   2.260827   2.319311   2.290734   -0.01188273 -0.01188273 3.412529   3.284513   16.40023   22.98727   5.75       9.975757   -9999      -9999      -9999      5161.267   5831.747   37.75877   24.72101   5.665601  
11161.5    -9999      122.8669   2.240078   2.279954   2.240078   2.240078   2.240078   2.240078   2.240078   2.279954   2.240078   2.279085   2.260016   -0.01188371 -0.01188371 3.359536   3.237595   14.57798   22.98727   5.75       9.975757   -9999      -9999      -9999      5161.267   5834.794   38.0822    24.72101   5.634594  
11162      -9999      122.8669   2.21933    2.239268   2.21933    2.21933    2.21933    2.21933    2.21933    2.239268   2.21933    2.238859   2.229299   -0.01188468 -0.01188468 3.359536   3.237595   14.57798   19.15606   5.75       9.97498    -9999      -9999      -9999      5161.267   5837.841   31.59227   24.79193   5.626574  
11162.5    -9999      122.8669   2.198581   2.198581   2.198581   2.198581   2.198581   2.198581   2.198581   2.198581   2.198581   2.198633   2.198581   -0.01188566 -0.01188566 3.359536   3.237595   14.57798   15.32485   5.75       9.974205   -9999      -9999      -9999      5161.267   5840.888   25.97298   24.86286   5.573747  
11163      -9999      121.5919   2.198581   2.198581   2.198581   2.198581   2.198581   2.198581   2.198581   2.198581   2.198581   2.158407   2.198581   -0.01188663 -0.01188663 2.840165   2.98421    14.27427   15.32485   5.75       9.973429   -9999      -9999      -9999      5161.267   5843.935   26.3452    24.93379   5.573747  
11163.5    -9999      120.3169   2.178622   2.178622   2.178622   2.178622   2.178622   2.178622   2.178622   2.178622   2.178622   2.158407   2.178622   -0.01188663 -0.01188663 2.320794   2.730825   13.97057   13.62209   5.75       9.973429   -9999      -9999      -9999      5161.267   5843.935   35.31551   25.00472   5.606842  
11164      213.8      120.3169   2.158664   2.158664   2.158664   2.158664   2.158664   2.158664   2.158664   2.158664   2.158664   2.158407   2.158664   -0.01188663 -0.01188663 2.320794   2.730825   13.66686   11.91932   5.75       9.973429   -9999      -9999      -9999      5161.267   5845.97    40.91806   25.00472   5.606842  
11164.5    213.8      120.3169   2.158664   2.158664   2.158664   2.158664   2.158664   2.158664   2.158664   2.158664   2.158664   2.142309   2.158664   -0.01188925 -0.01188925 2.320794   2.730825   13.66686   11.91932   5.75       9.961794   -9999      -9999      -9999      5155.601   5848.004   38.80728   25.00472   5.725524  
