~Version
 VERS              .         2.0                           : CWLS LOG ASCII STANDARD - VERSION 2.0
 WRAP              .         NO                            : ONE LINE PER DEPTH STEP
 DLM               .         SPACE                         : DELIMITING CHARACTER(SPACE TAB OR COMMA)
~Well Information
#_______________________________________________________________________________
#
#PARAMETER_NAME    .UNIT     VALUE                         : DESCRIPTION
#_______________________________________________________________________________
STRT               .ft       11140                         : First reference value
STOP               .ft       11397.5                       : Last reference value
STEP               .ft       0.5                           : Step increment
NULL               .         -9999                         : Missing value
COMP               .                                       : Company
WELL               .         2/4-X-29 A                    : Well name
FLD                .                                       : Field
LOC                .                                       : Location
CNTY               .                                       : County
STAT               .                                       : State
CTRY               .                                       : Country
SRVC               .                                       : Service Company
DATE               .                                       : Date
API                .                                       : API number
~Parameter Information Block
#_______________________________________________________________________________
#
#PARAMETER_NAME    .UNIT     VALUE                         : DESCRIPTION
#_______________________________________________________________________________
SET                .         Run 400 Eko X_50              : 
TLFamily_ADTEMP-T  .         Tool Temperature              : 
TLFamily_ADXT      .         Exposure Time                 : 
TLFamily_ALCDBQ-T  .         Bottom Quadrant Density       : 
TLFamily_ALCDH-T   .         Density Image                 : 
TLFamily_ALCDLC-T  .         Best Rapid Sampling Density   : 
TLFamily_ALCDTQ-T  .         Top Quadrant Density          : 
TLFamily_ALDCA-T   .         Bulk Density Correction       : 
TLFamily_ALDCLC-T  .         Bulk Density Correction       : 
TLFamily_ARH16PC-T .         Shallow Phase Shift Resistivity: 
TLFamily_ARM48PC-T .         Deep Phase Shift Resistivity  : 
TLFamily_BGCGC-T   .         At Bit Gamma Ray              : 
TLFamily_DEPT      .         Measured Depth                : 
TLFamily_GMGRCC-T  .         Gamma Ray                     : 
TLFamily_GMHSU-T   .                                       : 
TLFamily_PWEA      .         PWD Equivalent Mud Weight     : 
TLFamily_PWEAAF    .         PWD Pumps Off Equivalent Mud Weight: 
TLFamily_PWEANF    .         PWD Min Pumps Off Equivalent Mud Weight: 
TLFamily_PWEAXF    .         PWD Max Pumps Off Equivalent Mud Weight: 
TLFamily_PWPA      .         PWD Annular Pressure          : 
TLFamily_PWPI      .                                       : 
TLFamily_ROPA      .         CPI Rate of Penetration       : 
TLFamily_TNPL-T    .         Limestone Neutron Porosity    : 
TLFamily_XBDEHC-T  .         Waveform Spectrum             : 
~Curve Information
#_______________________________________________________________________________
#
#LOGNAME           .UNIT     LOG_ID                        : DESCRIPTION
#_______________________________________________________________________________
DEPT               .ft                                     : DEPT/Depth 
ADTEMP-T           .degF                                   : ADTEMP-T/ADR Temperature RT 
ADXT               .min                                    : ADXT/ADR Formation Exp Time 
ALCDBQ-T           .g/cc                                   : ALCDBQ-T/ALD Comp Den B-Quad RT 
ALCDH-T[0]         .g/cc                                   : ALCDH-T/ALD Comp Den Azi HS RT 
ALCDH-T[1]         .g/cc                                   : ALCDH-T/ALD Comp Den Azi HS RT 
ALCDH-T[2]         .g/cc                                   : ALCDH-T/ALD Comp Den Azi HS RT 
ALCDH-T[3]         .g/cc                                   : ALCDH-T/ALD Comp Den Azi HS RT 
ALCDH-T[4]         .g/cc                                   : ALCDH-T/ALD Comp Den Azi HS RT 
ALCDH-T[5]         .g/cc                                   : ALCDH-T/ALD Comp Den Azi HS RT 
ALCDH-T[6]         .g/cc                                   : ALCDH-T/ALD Comp Den Azi HS RT 
ALCDH-T[7]         .g/cc                                   : ALCDH-T/ALD Comp Den Azi HS RT 
ALCDLC-T           .g/cc                                   : ALCDLC-T/ALD LCRB Comp Density RT 
ALCDTQ-T           .g/cc                                   : ALCDTQ-T/ALD Comp Den T-Quad RT 
ALDCA-T            .g/cc                                   : ALDCA-T/ALD Average Den Corr RT 
ALDCLC-T           .g/cc                                   : ALDCLC-T/ALD LCRB Density Corr RT 
ARH16PC-T          .ohmm                                   : ARH16PC-T/Avg 16in 2M Ph Res RT 
ARM48PC-T          .ohmm                                   : ARM48PC-T/Avg 48in 500k Ph Res RT 
BGCGC-T            .api                                    : BGCGC-T/ABG Comb Gamma Ray BC RT 
GMGRCC-T           .api                                    : GMGRCC-T/GM Comb Gamma Ray RT BCor 
GMHSU-T            .in                                     : GMHSU-T/GM Hole Size Used RT 
PWEA               .ppg                                    : PWEA/PWD Annular EMW 
PWEAAF             .ppg                                    : PWEAAF/PWD Avg POff Annular EMW 
PWEANF             .ppg                                    : PWEANF/PWD Min POff Annular EMW 
PWEAXF             .ppg                                    : PWEAXF/PWD Max POff Annular EMW 
PWPA               .psig                                   : PWPA/PWD Annular Pressure 
PWPI               .psig                                   : PWPI/PWD Internal Pressure 
ROPA               .fph                                    : ROPA/Avg Rate of Penetration 
TNPL-T             .pu                                     : TNPL-T/CTN Porosity Limestone RT 
XBDEHC-T           .in                                     : XBDEHC-T/XCAL Eqv Hole Diam Cor RT 
~Ascii
# ...
11240      -9999      55.42658   2.038952   2.038952   2.038952   2.038952   2.038952   2.038952   2.038952   2.038952   2.038952   1.997458   2.038952   -0.01172407 -0.01172407 16.90605   17.89476   7.288991   8.513803   5.75       10.31248   -9999      -9999      -9999      5376.266   6067.721   92.66372   35.67797   5.635055  
11240.5    -9999      55.66481   2.038952   2.038952   2.038952   2.038952   2.038952   2.038952   2.038952   2.038952   2.038952   2.013572   2.038952   0.01954389 0.01954389 18.63459   19.02527   7.288991   7.662424   5.75       10.31248   -9999      -9999      -9999      5376.266   6067.721   92.62303   35.67797   5.671922  
11241      -9999      55.90305   2.013925   2.013925   2.013925   2.013925   2.013925   2.013925   2.013925   2.013925   2.013925   2.013572   2.013925   0.01954389 0.01954389 20.36312   20.15578   6.681575   6.811043   5.75       10.32402   -9999      -9999      -9999      5382.599   6076.183   92.67262   34.26788   5.708788  
11241.5    -9999      56.2092    1.983036   1.983036   1.983036   1.983036   1.983036   1.983036   1.983036   1.983036   1.983036   1.987371   1.983036   0.002600475 0.002600475 20.45113   20.34647   6.07416    6.811043   5.75       10.33557   -9999      -9999      -9999      5388.932   6084.646   92.67451   32.8578    5.708788  
11242      -9999      57.68345   1.983036   1.983036   1.983036   1.983036   1.983036   1.983036   1.983036   1.983036   1.983036   1.965254   1.983036   -0.0117021 -0.0117021 20.38974   21.05901   5.466743   7.236733   5.75       10.34712   -9999      -9999      -9999      5395.266   6093.108   92.45994   32.8578    5.706078  
11242.5    -9999      58.10999   2.022986   2.022986   2.022986   2.022986   2.022986   2.022986   2.022986   2.022986   2.022986   1.965254   2.022986   -0.0117021 -0.0117021 17.69708   19.95967   5.466743   7.662423   5.75       10.34712   -9999      -9999      -9999      5395.266   6093.108   92.51904   34.40954   5.703368  
11243      -9999      58.35012   2.049853   2.049853   2.049853   2.049853   2.049853   2.049853   2.049853   2.049853   2.049853   2.052411   2.049853   -0.01173565 -0.01173565 16.18118   19.34076   7.288991   7.662423   5.75       10.30784   -9999      -9999      -9999      5375.266   6077.25    92.56594   35.96128   5.700658  
11243.5    -9999      58.35012   2.055492   2.055492   2.055492   2.055492   2.055492   2.055492   2.055492   2.055492   2.055492   2.061787   2.055492   0.01356043 0.01356043 16.18118   19.34076   9.111239   8.513803   5.75       10.26856   -9999      -9999      -9999      5355.266   6061.391   92.62548   35.96128   5.697948  
11244      -9999      59.01678   2.010418   2.010418   2.010418   2.010418   2.010418   2.010418   2.010418   2.010418   2.010418   2.022968   2.010418   0.01954209 0.01954209 19.46845   22.92991   9.111239   8.513803   5.75       10.26856   -9999      -9999      -9999      5355.266   6061.391   92.44496   34.97143   5.697948  
11244.5    -9999      59.01678   1.986653   1.986653   1.986653   1.986653   1.986653   1.986653   1.986653   1.986653   1.986653   2.012094   1.986653   0.01381054 0.01381054 19.46845   22.92991   7.744554   8.513803   5.75       10.26856   -9999      -9999      -9999      5355.266   6061.391   92.45349   33.98158   5.692282  
11245      -9999      59.01678   1.983036   1.983036   1.983036   1.983036   1.983036   1.983036   1.983036   1.983036   1.983036   2.005521   1.983036   -0.01170199 -0.01170199 19.46845   22.92991   6.377867   8.513803   5.75       10.31056   -9999      -9999      -9999      5377.599   6080.461   92.55282   33.98158   5.686615  
11245.5    215.6      59.30012   1.983015   1.983015   1.983015   1.983015   1.983015   1.983015   1.983015   1.983015   1.983015   2.005521   1.983015   -0.01170199 -0.01170199 23.8253    25.0575    6.377867   8.513803   5.75       10.35256   -9999      -9999      -9999      5399.932   6099.531   92.50849   34.12251   5.68095   
11246      215.6      59.58345   1.983015   1.983015   1.983015   1.983015   1.983015   1.983015   1.983015   1.983015   1.983015   1.965235   1.983015   -0.01174708 -0.01174708 28.18214   27.1851    5.466743   7.662423   5.75       10.39457   -9999      -9999      -9999      5422.265   6118.601   93.94135   34.26344   5.68095   
11246.5    215.6      60.11703   1.956411   1.956411   1.956411   1.956411   1.956411   1.956411   1.956411   1.956411   1.956411   1.965235   1.956411   -0.01174708 -0.01174708 29.68926   27.83747   4.55562    6.811043   5.75       10.39457   -9999      -9999      -9999      5422.265   6118.601   96.46722   34.26344   5.68095   
11247      -9999      60.55012   1.943089   1.943089   1.943089   1.943089   1.943089   1.943089   1.943089   1.943089   1.943089   1.965253   1.943089   -0.01170254 -0.01170254 30.91254   28.36698   3.644496   5.959662   5.75       10.25318   -9999      -9999      -9999      5348.835   5920.906   99.09771   34.54652   5.714213  
11247.5    -9999      61.80013   1.999494   1.999494   1.999494   1.999494   1.999494   1.999494   1.999494   1.999494   1.999494   1.971775   1.999494   -0.01170489 -0.01170489 30.91254   29.60024   3.644496   5.959662   5.75       10.202     -9999      -9999      -9999      5322.318   5886.971   98.71867   34.82961   5.747477  
11248      -9999      61.80013   2.006997   2.006997   2.006997   2.006997   2.006997   2.006997   2.006997   2.006997   2.006997   2.013566   2.006997   -0.01171995 -0.01171995 30.91254   29.60024   3.948204   5.959662   5.75       10.24909   -9999      -9999      -9999      5347.068   5980.157   98.94446   35.11269   5.747477  
11248.5    -9999      62.60012   2.054931   2.054931   2.054931   2.054931   2.054931   2.054931   2.054931   2.054931   2.054931   2.013566   2.054931   -0.01171995 -0.01171995 32.37539   32.22995   4.251912   6.811043   5.75       10.27136   -9999      -9999      -9999      5359.047   6036.136   99.01929   35.11269   5.743046  
11249      -9999      62.82074   2.054931   2.054931   2.054931   2.054931   2.054931   2.054931   2.054931   2.054931   2.054931   2.053838   2.054931   -0.04294366 -0.04294366 33.82461   33.09137   4.55562    7.662423   5.75       10.28093   -9999      -9999      -9999      5364.266   6036.136   97.86826   32.72139   5.738615  
11249.5    215.6      63.33346   2.174718   2.074905   2.174718   2.174718   2.174718   2.174718   2.174718   2.174718   2.074905   2.085311   2.074905   -0.03354265 -0.03354265 37.19255   35.09328   4.55562    7.662423   5.75       10.28043   -9999      -9999      -9999      5364.266   6019.703   88.57584   30.33009   5.734184  
11250      215.6      63.81616   2.148591   2.108159   2.178281   2.148591   2.148591   2.148591   2.178281   2.178281   2.108159   2.158494   2.108159   -0.01168301 -0.01168301 35.21042   34.21107   4.55562    7.662423   5.75       10.27994   -9999      -9999      -9999      5364.266   6010.985   76.17307   30.33009   5.729753  
11250.5    215.6      64.13346   2.077648   2.171169   2.15311    2.077648   2.077648   2.077648   2.15311    2.15311    2.171169   2.09138    2.171169   0.01373904 0.01373904 33.90746   33.63116   5.011182   7.662423   5.75       10.27994   -9999      -9999      -9999      5364.266   6010.985   72.76932   30.33009   5.725322  
11251      215.6      64.98347   2.052191   2.076263   2.056838   2.052191   2.052191   2.052191   2.056838   2.061467   2.076263   2.066244   2.076263   0.004864465 0.004864465 35.51204   35.09328   5.466743   7.662423   5.75       10.2825    -9999      -9999      -9999      5366.266   6010.985   76.52329   30.89184   5.725322  
11251.5    215.6      64.98347   2.038816   2.038816   2.038816   2.038816   2.038816   2.038816   2.038816   2.108259   2.038816   2.051518   2.038816   -0.01168161 -0.01168161 35.51204   35.09328   5.466743   7.662423   5.75       10.2825    -9999      -9999      -9999      5366.266   6010.985   76.49754   31.4536    -9999     
11252      215.6      64.98347   2.074516   2.074516   2.074516   2.074516   2.074516   2.074516   2.074516   2.083652   2.074516   2.067082   2.074516   -0.01167611 -0.01167611 35.51204   35.09328   5.922306   7.662423   5.75       10.27886   -9999      -9999      -9999      5364.766   6033.026   81.32213   31.4536    -9999     
