~Version
 VERS              .         2.0                           : CWLS LOG ASCII STANDARD - VERSION 2.0
 WRAP              .         NO                            : ONE LINE PER DEPTH STEP
 DLM               .         SPACE                         : DELIMITING CHARACTER(SPACE TAB OR COMMA)
~Well Information
#_______________________________________________________________________________
#
#PARAMETER_NAME    .UNIT     VALUE                         : DESCRIPTION
#_______________________________________________________________________________
STRT               .ft       11140                         : First reference value
STOP               .ft       11397.5                       : Last reference value
STEP               .ft       0.5                           : Step increment
NULL               .         -9999                         : Missing value
COMP               .                                       : Company
WELL               .         2/4-X-29 A                    : Well name
FLD                .                                       : Field
LOC                .                                       : Location
CNTY               .                                       : County
STAT               .                                       : State
CTRY               .                                       : Country
SRVC               .                                       : Service Company
DATE               .                                       : Date
API                .                                       : API number
~Parameter Information Block
#_______________________________________________________________________________
#
#PARAMETER_NAME    .UNIT     VALUE                         : DESCRIPTION
#_______________________________________________________________________________
SET                .         Run 400 Eko X_50              : 
TLFamily_ADTEMP-T  .         Tool Temperature              : 
TLFamily_ADXT      .         Exposure Time                 : 
TLFamily_ALCDBQ-T  .         Bottom Quadrant Density       : 
TLFamily_ALCDH-T   .         Density Image                 : 
TLFamily_ALCDLC-T  .         Best Rapid Sampling Density   : 
TLFamily_ALCDTQ-T  .         Top Quadrant Density          : 
TLFamily_ALDCA-T   .         Bulk Density Correction       : 
TLFamily_ALDCLC-T  .         Bulk Density Correction       : 
TLFamily_ARH16PC-T .         Shallow Phase Shift Resistivity: 
TLFamily_ARM48PC-T .         Deep Phase Shift Resistivity  : 
TLFamily_BGCGC-T   .         At Bit Gamma Ray              : 
TLFamily_DEPT      .         Measured Depth                : 
TLFamily_GMGRCC-T  .         Gamma Ray                     : 
TLFamily_GMHSU-T   .                                       : 
TLFamily_PWEA      .         PWD Equivalent Mud Weight     : 
TLFamily_PWEAAF    .         PWD Pumps Off Equivalent Mud Weight: 
TLFamily_PWEANF    .         PWD Min Pumps Off Equivalent Mud Weight: 
TLFamily_PWEAXF    .         PWD Max Pumps Off Equivalent Mud Weight: 
TLFamily_PWPA      .         PWD Annular Pressure          : 
TLFamily_PWPI      .                                       : 
TLFamily_ROPA      .         CPI Rate of Penetration       : 
TLFamily_TNPL-T    .         Limestone Neutron Porosity    : 
TLFamily_XBDEHC-T  .         Waveform Spectrum             : 
~Curve Information
#_______________________________________________________________________________
#
#LOGNAME           .UNIT     LOG_ID                        : DESCRIPTION
#_______________________________________________________________________________
DEPT               .ft                                     : DEPT/Depth 
ADTEMP-T           .degF                                   : ADTEMP-T/ADR Temperature RT 
ADXT               .min                                    : ADXT/ADR Formation Exp Time 
ALCDBQ-T           .g/cc                                   : ALCDBQ-T/ALD Comp Den B-Quad RT 
ALCDH-T[0]         .g/cc                                   : ALCDH-T/ALD Comp Den Azi HS RT 
ALCDH-T[1]         .g/cc                                   : ALCDH-T/ALD Comp Den Azi HS RT 
ALCDH-T[2]         .g/cc                                   : ALCDH-T/ALD Comp Den Azi HS RT 
ALCDH-T[3]         .g/cc                                   : ALCDH-T/ALD Comp Den Azi HS RT 
ALCDH-T[4]         .g/cc                                   : ALCDH-T/ALD Comp Den Azi HS RT 
ALCDH-T[5]         .g/cc                                   : ALCDH-T/ALD Comp Den Azi HS RT 
ALCDH-T[6]         .g/cc                                   : ALCDH-T/ALD Comp Den Azi HS RT 
ALCDH-T[7]         .g/cc                                   : ALCDH-T/ALD Comp Den Azi HS RT 
ALCDLC-T           .g/cc                                   : ALCDLC-T/ALD LCRB Comp Density RT 
ALCDTQ-T           .g/cc                                   : ALCDTQ-T/ALD Comp Den T-Quad RT 
ALDCA-T            .g/cc                                   : ALDCA-T/ALD Average Den Corr RT 
ALDCLC-T           .g/cc                                   : ALDCLC-T/ALD LCRB Density Corr RT 
ARH16PC-T          .ohmm                                   : ARH16PC-T/Avg 16in 2M Ph Res RT 
ARM48PC-T          .ohmm                                   : ARM48PC-T/Avg 48in 500k Ph Res RT 
BGCGC-T            .api                                    : BGCGC-T/ABG Comb Gamma Ray BC RT 
GMGRCC-T           .api                                    : GMGRCC-T/GM Comb Gamma Ray RT BCor 
GMHSU-T            .in                                     : GMHSU-T/GM Hole Size Used RT 
PWEA               .ppg                                    : PWEA/PWD Annular EMW 
PWEAAF             .ppg                                    : PWEAAF/PWD Avg POff Annular EMW 
PWEANF             .ppg                                    : PWEANF/PWD Min POff Annular EMW 
PWEAXF             .ppg                                    : PWEAXF/PWD Max POff Annular EMW 
PWPA               .psig                                   : PWPA/PWD Annular Pressure 
PWPI               .psig                                   : PWPI/PWD Internal Pressure 
ROPA               .fph                                    : ROPA/Avg Rate of Penetration 
TNPL-T             .pu                                     : TNPL-T/CTN Porosity Limestone RT 
XBDEHC-T           .in                                     : XBDEHC-T/XCAL Eqv Hole Diam Cor RT 
~Ascii
# ...
11215      -9999      81.90572   2.098      2.098      2.098      2.098      2.098      2.098      2.098      2.098      2.038101   2.096709   2.06805    0.008992457 0.008992457 22.84415   21.73353   4.55562    8.513803   5.75       10.24927   -9999      -9999      -9999      5330.464   5912.616   70.94516   30.05986   5.588703  
11215.5    -9999      81.75016   2.090814   2.090814   2.090814   2.090814   2.090814   2.090814   2.090814   2.090814   2.040898   2.059142   2.065856   -0.001415142 -0.001415142 24.53201   22.92991   4.859328   8.513803   5.75       10.19693   -9999      -9999      -9999      5303.322   5826.106   70.79539   31.46572   5.575604  
11216      -9999      81.75016   2.083628   2.083628   2.083628   2.083628   2.083628   2.083628   2.083628   2.083628   2.043695   2.021575   2.063662   -0.01182274 -0.01182274 24.53201   22.92991   5.163035   8.513803   5.75       10.21743   -9999      -9999      -9999      5314.157   5918.475   70.87804   31.46572   5.575604  
11216.5    -9999      81.75016   2.076442   2.076442   2.076442   2.076442   2.076442   2.076442   2.076442   2.076442   2.046492   2.021575   2.061467   -0.01182274 -0.01182274 24.53201   22.92991   5.466743   8.513803   5.75       10.24791   -9999      -9999      -9999      5330.266   5967.225   70.95774   32.30832   5.575604  
11217      -9999      81.86683   2.069256   2.069256   2.069256   2.069256   2.069256   2.069256   2.069256   2.069256   2.04929    2.029628   2.059273   -0.01181997 -0.01181997 23.9903    23.17913   5.466743   8.300959   5.75       10.24897   -9999      -9999      -9999      5331.266   5917.6     70.87976   32.30832   5.731512  
11217.5    -9999      81.98349   2.06207    2.06207    2.06207    2.06207    2.06207    2.06207    2.06207    2.06207    2.052087   2.037681   2.057079   -0.01181721 -0.01181721 23.44859   23.42835   5.694524   8.088114   5.75       10.24897   -9999      -9999      -9999      5331.266   5917.6     70.9754    33.1872    5.757953  
11218      -9999      82.10016   2.054884   2.054884   2.054884   2.054884   2.054884   2.054884   2.054884   2.054884   2.054884   2.045734   2.054884   -0.01181444 -0.01181444 22.90689   23.67757   5.922305   7.875268   5.75       10.14614   -9999      -9999      -9999      5278.266   5899.098   71.11514   31.21235   5.785177  
11218.5    -9999      82.21683   2.054884   2.054884   2.054884   2.054884   2.054884   2.054884   2.054884   2.054884   2.054884   2.053787   2.054884   -0.01181168 -0.01181168 22.36518   23.92679   6.150086   7.662423   5.75       10.14614   -9999      -9999      -9999      5278.266   5899.098   70.9557    30.65195   5.807867  
11219      213.8      82.21683   2.094828   2.094828   2.094828   2.094828   2.094828   2.094828   2.094828   2.094828   2.094828   2.061841   2.094828   -0.01180891 -0.01180891 22.36518   23.92679   6.377867   7.662423   5.75       10.2566    -9999      -9999      -9999      5336.266   5998.45    65.15627   31.39898   5.807867  
11219.5    213.8      82.21683   2.094828   2.094828   2.094828   2.094828   2.094828   2.094828   2.094828   2.094828   2.094828   2.065907   2.094828   -0.01180323 -0.01180323 22.36518   23.92679   6.377867   7.094836   5.75       10.2566    -9999      -9999      -9999      5336.266   5998.45    50.27199   31.47523   5.780516  
11220      -9999      79.01682   2.038875   2.038875   2.038875   2.038875   2.038875   2.038875   2.038875   2.108812   2.038875   2.077953   2.038875   -0.01178637 -0.01178637 24.30417   24.63535   7.288991   6.527249   5.75       10.20372   -9999      -9999      -9999      5309.266   6004.715   42.97853   30.6206    5.780516  
11220.5    -9999      75.81682   2.014954   2.014954   2.014954   2.014954   2.014954   2.014954   2.014954   2.114791   2.014954   2.053798   2.014954   -0.01178847 -0.01178847 26.24316   25.34391   8.200115   5.959662   5.75       10.20372   -9999      -9999      -9999      5309.266   6004.715   41.89512   30.6206    5.819301  
11221      -9999      72.61681   2.014956   2.014956   2.014956   2.014956   2.014956   2.014956   2.014956   2.094825   2.014956   2.053798   2.014956   -0.01178847 -0.01178847 28.18214   26.05246   9.111239   5.959662   5.75       10.27006   -9999      -9999      -9999      5344.266   5985.94    32.39644   33.14674   5.819301  
11221.5    -9999      72.61681   2.014957   2.014957   2.014957   2.014957   2.014957   2.014957   2.014957   2.074859   2.014957   2.049771   2.014957   0.003835219 0.003835219 28.18214   26.05246   9.111239   6.598198   5.75       10.27349   -9999      -9999      -9999      5346.157   6002.323   31.42409   33.14674   5.819301  
11222      -9999      64.12791   2.014959   2.014959   2.014959   2.014959   2.014959   2.014959   2.014959   2.054893   2.014959   2.045745   2.014959   0.01945891 0.01945891 26.59595   25.69065   9.111239   7.236733   5.75       10.28457   9.796125   9.744246   9.976741   5352.266   6036.136   28.86411   30.33911   5.780578  
11222.5    -9999      55.639     2.01496    2.01496    2.01496    2.01496    2.01496    2.01496    2.01496    2.034927   2.01496    2.045745   2.01496    0.01945891 0.01945891 25.00975   25.32883   8.807531   7.875268   5.75       10.28728   9.796125   9.744246   9.976741   5353.978   6025.551   10.78089   31.00776   5.780578  
11223      -9999      47.15009   2.014961   2.014961   2.014961   2.014961   2.014961   2.014961   2.014961   2.014961   2.014961   2.041723   2.014961   0.003843863 0.003843863 23.42355   24.96702   8.503823   8.513803   5.75       10.27794   9.796125   9.744246   9.976741   5349.334   6015.413   0          33.4138    5.780578  
11223.5    -9999      47.15009   2.014961   2.014961   2.014961   2.014961   2.014961   2.014961   2.014961   2.014961   2.014961   2.037701   2.014961   -0.01177118 -0.01177118 23.42355   24.96702   8.200115   8.513803   5.75       10.28284   -9999      -9999      -9999      5352.097   6016.862   1.462955   34.55367   5.813775  
11224      -9999      47.15009   2.02295    2.02295    2.02295    2.02295    2.02295    2.02295    2.02295    2.02295    2.02295    2.037701   2.02295    -0.01177118 -0.01177118 23.42355   24.96702   8.200115   7.321871   5.75       10.28997   -9999      -9999      -9999      5356.039   6026.823   37.91755   30.05818   5.846972  
11224.5    -9999      49.16676   2.030939   2.030939   2.030939   2.030939   2.030939   2.030939   2.030939   2.030939   2.030939   2.072726   2.030939   -0.01179619 -0.01179619 18.58879   21.05901   8.200115   6.129939   5.75       10.30153   -9999      -9999      -9999      5362.266   6023.548   77.45415   30.64124   5.846972  
11225      -9999      49.16676   2.038927   2.038927   2.038927   2.038927   2.038927   2.038927   2.038927   2.038927   2.038927   2.067482   2.038927   -0.0117937 -0.0117937 18.58879   21.05901   9.414948   4.938006   5.75       10.31789   -9999      -9999      -9999      5371.266   6042.439   91.65849   32.30268   5.846972  
11225.5    -9999      49.64053   2.038927   2.038927   2.038927   2.038927   2.038927   2.038927   2.038927   2.038927   2.038927   2.029649   2.038927   -0.01177124 -0.01177124 19.75227   21.65049   10.62978   3.746074   5.75       10.31789   -9999      -9999      -9999      5371.266   6042.439   92.50825   32.30268   5.587178  
11226      -9999      49.9001    2.102824   2.102824   2.102824   2.102824   2.102824   2.102824   2.102824   2.102824   2.102824   2.029649   2.102824   -0.01177124 -0.01177124 20.38974   21.97456   11.84461   2.554141   5.75       10.31135   -9999      -9999      -9999      5368.266   6055.08    92.57663   31.7394    5.587178  
11226.5    -9999      49.9001    2.102824   2.102824   2.102824   2.102824   2.102824   2.102824   2.102824   2.102824   2.102824   2.110166   2.102824   -0.01175921 -0.01175921 20.38974   21.97456   11.84461   2.554141   5.75       10.3048    -9999      -9999      -9999      5365.266   6067.721   92.70557   31.7394    5.587178  
11227      -9999      50.01677   2.022962   2.122795   2.122795   2.022962   2.022962   2.022962   2.022962   2.122795   2.122795   2.073712   2.122795   -0.0117536 -0.0117536 19.9291    21.97456   9.111239   3.831212   5.75       10.3048    -9999      -9999      -9999      5365.266   6067.721   92.68477   27.24895   5.869936  
