~Version
 VERS              .         2.0                           : CWLS LOG ASCII STANDARD - VERSION 2.0
 WRAP              .         NO                            : ONE LINE PER DEPTH STEP
 DLM               .         SPACE                         : DELIMITING CHARACTER(SPACE TAB OR COMMA)
~Well Information
#_______________________________________________________________________________
#
#PARAMETER_NAME    .UNIT     VALUE                         : DESCRIPTION
#_______________________________________________________________________________
STRT               .ft       11140                         : First reference value
STOP               .ft       11397.5                       : Last reference value
STEP               .ft       0.5                           : Step increment
NULL               .         -9999                         : Missing value
COMP               .                                       : Company
WELL               .         2/4-X-29 A                    : Well name
FLD                .                                       : Field
LOC                .                                       : Location
CNTY               .                                       : County
STAT               .                                       : State
CTRY               .                                       : Country
SRVC               .                                       : Service Company
DATE               .                                       : Date
API                .                                       : API number
~Parameter Information Block
#_______________________________________________________________________________
#
#PARAMETER_NAME    .UNIT     VALUE                         : DESCRIPTION
#_______________________________________________________________________________
SET                .         Run 400 Eko X_50              : 
TLFamily_ADTEMP-T  .         Tool Temperature              : 
TLFamily_ADXT      .         Exposure Time                 : 
TLFamily_ALCDBQ-T  .         Bottom Quadrant Density       : 
TLFamily_ALCDH-T   .         Density Image                 : 
TLFamily_ALCDLC-T  .         Best Rapid Sampling Density   : 
TLFamily_ALCDTQ-T  .         Top Quadrant Density          : 
TLFamily_ALDCA-T   .         Bulk Density Correction       : 
TLFamily_ALDCLC-T  .         Bulk Density Correction       : 
TLFamily_ARH16PC-T .         Shallow Phase Shift Resistivity: 
TLFamily_ARM48PC-T .         Deep Phase Shift Resistivity  : 
TLFamily_BGCGC-T   .         At Bit Gamma Ray              : 
TLFamily_DEPT      .         Measured Depth                : 
TLFamily_GMGRCC-T  .         Gamma Ray                     : 
TLFamily_GMHSU-T   .                                       : 
TLFamily_PWEA      .         PWD Equivalent Mud Weight     : 
TLFamily_PWEAAF    .         PWD Pumps Off Equivalent Mud Weight: 
TLFamily_PWEANF    .         PWD Min Pumps Off Equivalent Mud Weight: 
TLFamily_PWEAXF    .         PWD Max Pumps Off Equivalent Mud Weight: 
TLFamily_PWPA      .         PWD Annular Pressure          : 
TLFamily_PWPI      .                                       : 
TLFamily_ROPA      .         CPI Rate of Penetration       : 
TLFamily_TNPL-T    .         Limestone Neutron Porosity    : 
TLFamily_XBDEHC-T  .         Waveform Spectrum             : 
~Curve Information
#_______________________________________________________________________________
#
#LOGNAME           .UNIT     LOG_ID                        : DESCRIPTION
#_______________________________________________________________________________
DEPT               .ft                                     : DEPT/Depth 
ADTEMP-T           .degF                                   : ADTEMP-T/ADR Temperature RT 
ADXT               .min                                    : ADXT/ADR Formation Exp Time 
ALCDBQ-T           .g/cc                                   : ALCDBQ-T/ALD Comp Den B-Quad RT 
ALCDH-T[0]         .g/cc                                   : ALCDH-T/ALD Comp Den Azi HS RT 
ALCDH-T[1]         .g/cc                                   : ALCDH-T/ALD Comp Den Azi HS RT 
ALCDH-T[2]         .g/cc                                   : ALCDH-T/ALD Comp Den Azi HS RT 
ALCDH-T[3]         .g/cc                                   : ALCDH-T/ALD Comp Den Azi HS RT 
ALCDH-T[4]         .g/cc                                   : ALCDH-T/ALD Comp Den Azi HS RT 
ALCDH-T[5]         .g/cc                                   : ALCDH-T/ALD Comp Den Azi HS RT 
ALCDH-T[6]         .g/cc                                   : ALCDH-T/ALD Comp Den Azi HS RT 
ALCDH-T[7]         .g/cc                                   : ALCDH-T/ALD Comp Den Azi HS RT 
ALCDLC-T           .g/cc                                   : ALCDLC-T/ALD LCRB Comp Density RT 
ALCDTQ-T           .g/cc                                   : ALCDTQ-T/ALD Comp Den T-Quad RT 
ALDCA-T            .g/cc                                   : ALDCA-T/ALD Average Den Corr RT 
ALDCLC-T           .g/cc                                   : ALDCLC-T/ALD LCRB Density Corr RT 
ARH16PC-T          .ohmm                                   : ARH16PC-T/Avg 16in 2M Ph Res RT 
ARM48PC-T          .ohmm                                   : ARM48PC-T/Avg 48in 500k Ph Res RT 
BGCGC-T            .api                                    : BGCGC-T/ABG Comb Gamma Ray BC RT 
GMGRCC-T           .api                                    : GMGRCC-T/GM Comb Gamma Ray RT BCor 
GMHSU-T            .in                                     : GMHSU-T/GM Hole Size Used RT 
PWEA               .ppg                                    : PWEA/PWD Annular EMW 
PWEAAF             .ppg                                    : PWEAAF/PWD Avg POff Annular EMW 
PWEANF             .ppg                                    : PWEANF/PWD Min POff Annular EMW 
PWEAXF             .ppg                                    : PWEAXF/PWD Max POff Annular EMW 
PWPA               .psig                                   : PWPA/PWD Annular Pressure 
PWPI               .psig                                   : PWPI/PWD Internal Pressure 
ROPA               .fph                                    : ROPA/Avg Rate of Penetration 
TNPL-T             .pu                                     : TNPL-T/CTN Porosity Limestone RT 
XBDEHC-T           .in                                     : XBDEHC-T/XCAL Eqv Hole Diam Cor RT 
~Ascii
# ...
11252.5    215.6      65.98347   2.104125   2.078904   2.078904   2.078904   2.078904   2.129347   2.129347   2.078904   2.078904   2.078001   2.078904   -0.01167358 -0.01167358 33.90746   33.63116   6.377868   7.094836   5.75       10.27522   -9999      -9999      -9999      5363.266   6055.067   90.78173   31.4536    5.592409  
11253      -9999      66.86128   2.128812   2.078906   2.078906   2.078906   2.078906   2.178718   2.178718   2.078906   2.078906   2.102156   2.078906   -0.01166508 -0.01166508 31.15725   33.18924   6.833429   6.527249   5.75       10.27522   -9999      -9999      -9999      5363.266   6055.067   91.88177   30.47254   5.592409  
11253.5    -9999      67.37514   2.128812   2.078906   2.078906   2.078906   2.078906   2.178718   2.178718   2.078906   2.078906   2.102156   2.078906   -0.01166508 -0.01166508 29.54734   32.93055   7.288991   5.959662   5.75       10.29431   -9999      -9999      -9999      5373.599   6061.397   80.82402   29.49148   5.592409  
11254      -9999      83.40345   2.206656   2.206656   2.206656   2.206656   2.206656   2.206656   2.206656   2.206656   2.206656   2.102156   2.206656   -0.01166508 -0.01166508 28.35853   32.00989   7.288991   5.959662   5.75       10.3134    -9999      -9999      -9999      5383.932   6067.728   75.50227   29.49148   -9999     
11254.5    -9999      103.1132   2.206656   2.206656   2.206656   2.206656   2.206656   2.206656   2.206656   2.206656   2.206656   2.255057   2.206656   0.01958068 0.01958068 26.65334   30.74883   6.681575   6.811043   5.75       10.33249   -9999      -9999      -9999      5394.266   6074.058   70.94205   26.95325   -9999     
11255      -9999      105.1621   2.206656   2.206656   2.206656   2.206656   2.206656   2.206656   2.206656   2.206656   2.206656   2.255057   2.206656   0.01958068 0.01958068 24.20676   29.29209   6.07416    7.662423   5.75       10.33249   -9999      -9999      -9999      5394.266   6074.058   58.44339   24.41501   -9999     
11255.5    -9999      107.2709   2.190691   2.190691   2.190691   2.190691   2.190691   2.190691   2.190691   2.190691   2.190691   2.255057   2.190691   0.01958068 0.01958068 23.4653    28.93088   5.466743   8.513803   5.75       10.33249   -9999      -9999      -9999      5394.266   6061.404   55.37606   24.41501   -9999     
11256      -9999      109.1876   2.190691   2.190691   2.190691   2.190691   2.190691   2.190691   2.190691   2.190691   2.190691   2.206784   2.190691   0.01958099 0.01958099 23.42355   29.44597   5.466743   9.365184   5.75       10.34438   -9999      -9999      -9999      5401.265   6048.75    61.58884   24.41501   -9999     
11256.5    -9999      109.5742   2.199668   2.124814   2.174724   2.174724   2.174724   2.224612   2.174724   2.174724   2.124814   2.206784   2.124814   0.01958099 0.01958099 25.5526    30.38638   5.466743   9.365184   5.75       10.34438   -9999      -9999      -9999      5401.265   6048.75    64.16919   25.0769    -9999     
11257      -9999      109.7169   2.208646   2.058938   2.158758   2.158758   2.158758   2.258533   2.158758   2.158758   2.058938   2.194714   2.058938   0.01958188 0.03520688 26.90876   30.88712   4.859327   9.365184   5.75       10.34438   -9999      -9999      -9999      5401.265   6048.75    67.93581   25.7388    -9999     
11257.5    -9999      109.7169   2.208646   2.058938   2.158758   2.158758   2.158758   2.258533   2.158758   2.158758   2.058938   2.182644   2.058938   0.01958277 0.05083277 26.90876   30.88712   4.251912   8.513803   5.75       10.27398   -9999      -9999      -9999      5365.266   6055.067   75.31548   26.40069   -9999     
11258      -9999      110.2669   2.191687   2.116833   2.166743   2.166743   2.166743   2.216631   2.216627   2.166743   2.116833   2.182644   2.116833   0.01958277 0.05083277 29.51579   30.88712   3.644496   7.662423   5.75       10.27398   -9999      -9999      -9999      5365.266   6055.067   85.30773   26.40069   -9999     
11258.5    215.6      110.2669   2.174729   2.174729   2.174729   2.174729   2.174729   2.174729   2.274497   2.174729   2.174729   2.182644   2.174729   0.01958277 0.05083277 29.51579   30.88712   3.644496   7.662423   5.75       10.27398   -9999      -9999      -9999      5365.266   6034.109   93.74368   26.40069   -9999     
11259      215.6      112.8199   2.174729   2.174729   2.174729   2.174729   2.174729   2.174729   2.274497   2.174729   2.174729   2.202763   2.174729   0.01958745 0.03521245 30.94559   31.55854   4.19117    7.662423   5.75       10.28921   -9999      -9999      -9999      5373.766   6013.15    86.72025   25.63502   -9999     
11259.5    215.6      115.3729   2.174729   2.174729   2.174729   2.174729   2.174729   2.174729   2.274497   2.174729   2.174729   2.222881   2.174729   0.01959212 0.01959212 32.37539   32.22995   4.737844   7.662423   5.75       10.30444   -9999      -9999      -9999      5382.266   5992.192   79.55016   24.86934   -9999     
11260      215.96     116.1638   2.190695   1.991044   1.991044   2.090889   2.190695   2.190695   2.190695   2.190695   2.090889   2.222881   2.040966   0.01959212 0.01959212 32.37539   32.22995   5.284519   7.662423   5.75       10.30444   -9999      -9999      -9999      5382.266   5992.192   83.90812   24.10367   -9999     
11260.5    216.32     116.7262   2.190695   1.991044   1.991044   2.090889   2.190695   2.190695   2.190695   2.190695   2.090889   2.1746     2.040966   0.01959167 0.01959167 32.37539   32.80346   5.831193   6.811043   5.75       10.30444   -9999      -9999      -9999      5382.266   5992.192   76.05627   25.40419   -9999     
11261      216.68     117.3169   2.123817   1.949096   1.949096   1.999019   2.098857   2.148777   2.098857   2.048922   1.999019   2.1746     1.974057   0.01959167 0.01959167 32.37539   33.63116   6.377867   6.811043   5.75       10.31118   -9999      -9999      -9999      5386.266   5992.192   65.56606   26.29585   -9999     
11261.5    217.04     117.7799   2.056938   1.907149   1.907149   1.907149   2.007019   2.106858   2.007019   1.907149   1.907149   2.06568    1.907149   0.007155953 0.007155953 30.78667   32.85268   6.377867   7.662423   5.75       10.31792   -9999      -9999      -9999      5390.266   5992.192   74.07539   26.11952   -9999     
11262      217.4      118.1502   2.023519   1.917702   1.917702   1.917702   1.988254   2.058784   1.988254   1.917702   1.917702   1.900833   1.917702   -0.01166519 -0.01166519 29.51579   32.22995   6.377867   8.513803   5.75       10.31792   -9999      -9999      -9999      5390.266   5992.192   93.04381   32.57729   -9999     
11262.5    217.4      118.1502   1.943098   1.943098   1.943098   1.943098   1.943098   1.943098   1.943098   1.943098   1.943098   1.917738   1.943098   0.004727832 0.004727832 29.51579   32.22995   6.605648   8.513803   5.75       10.31792   -9999      -9999      -9999      5390.266   5998.453   102.1731   32.57729   -9999     
11263      217.4      119.1002   1.92313    1.92313    1.92313    1.92313    1.92313    1.92313    1.92313    1.92313    1.92313    1.933048   1.92313    0.01957379 0.01957379 26.90876   30.88712   6.833429   9.365185   5.75       10.30094   -9999      -9999      -9999      5382.266   6004.715   104.0169   35.39492   -9999     
11263.5    217.4      119.1002   1.903162   1.903162   1.903162   1.903162   1.903162   1.903162   1.903162   1.903162   1.903162   1.922313   1.903162   0.009169679 0.009169679 26.90876   30.88712   7.061211   10.21657   5.75       10.30094   -9999      -9999      -9999      5382.266   6004.715   104.707    35.39492   -9999     
11264      217.4      119.8502   1.903162   1.903162   1.903162   1.903162   1.903162   1.903162   1.903162   1.903162   1.903162   1.911579   1.903162   -0.001234431 -0.001234431 24.53201   29.60024   7.288991   9.915638   5.75       10.30094   -9999      -9999      -9999      5382.266   6004.715   104.5511   35.11179   -9999     
11264.5    217.4      119.8502   1.903162   1.903162   1.903162   1.903162   1.903162   1.903162   1.903162   1.903162   1.903162   1.900844   1.903162   -0.01163854 -0.01163854 24.53201   29.60024   7.288991   9.365184   5.75       10.31673   -9999      -9999      -9999      5390.932   6004.715   105.1654   35.11179   -9999     
