~Version
 VERS              .         2.0                           : CWLS LOG ASCII STANDARD - VERSION 2.0
 WRAP              .         NO                            : ONE LINE PER DEPTH STEP
 DLM               .         SPACE                         : DELIMITING CHARACTER(SPACE TAB OR COMMA)
~Well Information
#_______________________________________________________________________________
#
#PARAMETER_NAME    .UNIT     VALUE                         : DESCRIPTION
#_______________________________________________________________________________
STRT               .ft       11140                         : First reference value
STOP               .ft       11397.5                       : Last reference value
STEP               .ft       0.5                           : Step increment
NULL               .         -9999                         : Missing value
COMP               .                                       : Company
WELL               .         2/4-X-29 A                    : Well name
FLD                .                                       : Field
LOC                .                                       : Location
CNTY               .                                       : County
STAT               .                                       : State
CTRY               .                                       : Country
SRVC               .                                       : Service Company
DATE               .                                       : Date
API                .                                       : API number
~Parameter Information Block
#_______________________________________________________________________________
#
#PARAMETER_NAME    .UNIT     VALUE                         : DESCRIPTION
#_______________________________________________________________________________
SET                .         Run 400 Eko X_50              : 
TLFamily_ADTEMP-T  .         Tool Temperature              : 
TLFamily_ADXT      .         Exposure Time                 : 
TLFamily_ALCDBQ-T  .         Bottom Quadrant Density       : 
TLFamily_ALCDH-T   .         Density Image                 : 
TLFamily_ALCDLC-T  .         Best Rapid Sampling Density   : 
TLFamily_ALCDTQ-T  .         Top Quadrant Density          : 
TLFamily_ALDCA-T   .         Bulk Density Correction       : 
TLFamily_ALDCLC-T  .         Bulk Density Correction       : 
TLFamily_ARH16PC-T .         Shallow Phase Shift Resistivity: 
TLFamily_ARM48PC-T .         Deep Phase Shift Resistivity  : 
TLFamily_BGCGC-T   .         At Bit Gamma Ray              : 
TLFamily_DEPT      .         Measured Depth                : 
TLFamily_GMGRCC-T  .         Gamma Ray                     : 
TLFamily_GMHSU-T   .                                       : 
TLFamily_PWEA      .         PWD Equivalent Mud Weight     : 
TLFamily_PWEAAF    .         PWD Pumps Off Equivalent Mud Weight: 
TLFamily_PWEANF    .         PWD Min Pumps Off Equivalent Mud Weight: 
TLFamily_PWEAXF    .         PWD Max Pumps Off Equivalent Mud Weight: 
TLFamily_PWPA      .         PWD Annular Pressure          : 
TLFamily_PWPI      .                                       : 
TLFamily_ROPA      .         CPI Rate of Penetration       : 
TLFamily_TNPL-T    .         Limestone Neutron Porosity    : 
TLFamily_XBDEHC-T  .         Waveform Spectrum             : 
~Curve Information
#_______________________________________________________________________________
#
#LOGNAME           .UNIT     LOG_ID                        : DESCRIPTION
#_______________________________________________________________________________
DEPT               .ft                                     : DEPT/Depth 
ADTEMP-T           .degF                                   : ADTEMP-T/ADR Temperature RT 
ADXT               .min                                    : ADXT/ADR Formation Exp Time 
ALCDBQ-T           .g/cc                                   : ALCDBQ-T/ALD Comp Den B-Quad RT 
ALCDH-T[0]         .g/cc                                   : ALCDH-T/ALD Comp Den Azi HS RT 
ALCDH-T[1]         .g/cc                                   : ALCDH-T/ALD Comp Den Azi HS RT 
ALCDH-T[2]         .g/cc                                   : ALCDH-T/ALD Comp Den Azi HS RT 
ALCDH-T[3]         .g/cc                                   : ALCDH-T/ALD Comp Den Azi HS RT 
ALCDH-T[4]         .g/cc                                   : ALCDH-T/ALD Comp Den Azi HS RT 
ALCDH-T[5]         .g/cc                                   : ALCDH-T/ALD Comp Den Azi HS RT 
ALCDH-T[6]         .g/cc                                   : ALCDH-T/ALD Comp Den Azi HS RT 
ALCDH-T[7]         .g/cc                                   : ALCDH-T/ALD Comp Den Azi HS RT 
ALCDLC-T           .g/cc                                   : ALCDLC-T/ALD LCRB Comp Density RT 
ALCDTQ-T           .g/cc                                   : ALCDTQ-T/ALD Comp Den T-Quad RT 
ALDCA-T            .g/cc                                   : ALDCA-T/ALD Average Den Corr RT 
ALDCLC-T           .g/cc                                   : ALDCLC-T/ALD LCRB Density Corr RT 
ARH16PC-T          .ohmm                                   : ARH16PC-T/Avg 16in 2M Ph Res RT 
ARM48PC-T          .ohmm                                   : ARM48PC-T/Avg 48in 500k Ph Res RT 
BGCGC-T            .api                                    : BGCGC-T/ABG Comb Gamma Ray BC RT 
GMGRCC-T           .api                                    : GMGRCC-T/GM Comb Gamma Ray RT BCor 
GMHSU-T            .in                                     : GMHSU-T/GM Hole Size Used RT 
PWEA               .ppg                                    : PWEA/PWD Annular EMW 
PWEAAF             .ppg                                    : PWEAAF/PWD Avg POff Annular EMW 
PWEANF             .ppg                                    : PWEANF/PWD Min POff Annular EMW 
PWEAXF             .ppg                                    : PWEAXF/PWD Max POff Annular EMW 
PWPA               .psig                                   : PWPA/PWD Annular Pressure 
PWPI               .psig                                   : PWPI/PWD Internal Pressure 
ROPA               .fph                                    : ROPA/Avg Rate of Penetration 
TNPL-T             .pu                                     : TNPL-T/CTN Porosity Limestone RT 
XBDEHC-T           .in                                     : XBDEHC-T/XCAL Eqv Hole Diam Cor RT 
~Ascii
# ...
11202.5    -9999      85.8224    2.118749   2.118749   2.118749   2.118749   2.118749   2.118749   2.118749   2.118749   2.118749   2.134268   2.118749   -0.0118709 -0.0118709 7.724621   8.402617   11.38905   12.98355   5.75       10.12695   -9999      -9999      -9999      5260.266   5967.225   49.4605    26.79076   5.797435  
11203      -9999      85.40017   2.166666   2.166666   2.166666   2.166666   2.166666   2.166666   2.166666   2.166666   2.166666   2.134268   2.166666   -0.0118709 -0.0118709 6.721776   7.913126   13.66686   13.62209   5.75       10.13931   -9999      -9999      -9999      5267.266   5942.36    56.10137   26.8843    5.797435  
11203.5    -9999      85.40017   2.166666   2.166666   2.166666   2.166666   2.166666   2.166666   2.166666   2.166666   2.166666   2.17452    2.166666   0.01940334 0.01940334 6.721776   7.913126   13.66686   13.62209   5.75       10.13167   -9999      -9999      -9999      5263.345   5921.183   61.31783   26.97784   5.703267  
11204      -9999      85.10573   2.07084    2.07084    2.07084    2.07084    2.07084    2.07084    2.07084    2.170655   2.07084    2.17452    2.07084    0.01940334 0.01940334 7.438139   8.402617   10.93349   13.62209   5.75       10.1269    -9999      -9999      -9999      5260.978   5906.839   57.82133   26.97784   5.703267  
11204.5    -9999      84.81128   2.07084    2.07084    2.07084    2.07084    2.07084    2.07084    2.07084    2.170655   2.07084    2.118171   2.07084    0.003774479 0.003774479 8.154503   8.892106   8.200115   11.06794   5.75       10.1435    -9999      -9999      -9999      5269.965   5864.782   54.80735   27.67815   5.765644  
11205      -9999      84.51684   2.07084    2.07084    2.07084    2.07084    2.07084    2.07084    2.07084    2.170655   2.07084    2.061821   2.07084    -0.01185438 -0.01185438 8.870866   9.381597   8.200115   11.06794   5.75       10.16011   -9999      -9999      -9999      5278.952   5822.725   60.83697   28.38232   5.779924  
11205.5    -9999      84.51684   2.054865   2.054865   2.054865   2.054865   2.054865   2.054865   2.054865   2.104772   2.054865   2.061821   2.054865   -0.01185438 -0.01185438 8.870866   9.381597   8.200115   11.06794   5.75       10.19625   -9999      -9999      -9999      5297.888   5940.365   68.7206    28.87254   5.658626  
11206      -9999      84.51684   2.03889    2.03889    2.03889    2.03889    2.03889    2.03889    2.03889    2.03889    2.03889    2.048401   2.03889    -0.01185448 -0.01185448 8.870866   9.381597   5.922306   10.50036   5.75       10.17081   -9999      -9999      -9999      5284.872   5952.89    70.7656    29.7858    5.658626  
11206.5    -9999      84.33684   2.03889    2.03889    2.03889    2.03889    2.03889    2.03889    2.03889    2.03889    2.03889    2.034981   2.03889    -0.01185457 -0.01185457 8.714159   9.381597   3.644496   9.932771   5.75       10.18482   -9999      -9999      -9999      5292.474   5960.258   70.28504   29.7858    5.658626  
11207      -9999      84.15684   2.03889    2.03889    2.03889    2.03889    2.03889    2.03889    2.03889    2.03889    2.03889    2.021561   2.03889    -0.01185467 -0.01185467 8.557453   9.381597   3.644496   9.365184   5.75       10.20722   -9999      -9999      -9999      5304.266   5967.225   70.63886   30.34694   5.609103  
11207.5    -9999      83.97684   2.106767   2.106767   2.106767   2.106767   2.106767   2.106767   2.106767   2.106767   2.106767   2.040376   2.106767   -0.01185497 -0.01185497 8.400746   9.381597   5.466743   9.365184   5.75       10.19794   -9999      -9999      -9999      5299.766   5979.695   71.26224   30.34694   5.559581  
11208      -9999      83.79684   2.174644   2.174644   2.174644   2.174644   2.174644   2.174644   2.174644   2.174644   2.174644   2.174516   2.174644   -0.01185713 -0.01185713 8.24404    9.381597   7.288991   10.64225   5.75       10.18867   -9999      -9999      -9999      5295.266   5979.695   69.61658   30.34694   5.559581  
11208.5    213.8      83.61684   2.174644   2.174644   2.174644   2.174644   2.174644   2.174644   2.174644   2.174644   2.174644   2.174516   2.174644   -0.01185713 -0.01185713 8.087334   9.381597   7.288991   11.91932   5.75       10.18867   -9999      -9999      -9999      5295.266   5979.695   64.04878   27.81863   5.559581  
11209      213.8      83.61684   2.174644   2.174644   2.174644   2.174644   2.174644   2.174644   2.174644   2.174644   2.174644   2.126223   2.174644   0.01939003 0.01939003 8.087334   9.381597   7.288991   11.91932   5.75       10.22419   -9999      -9999      -9999      5314.266   5992.192   58.66484   27.81863   5.670183  
11209.5    213.8      83.41684   2.161339   2.161339   2.161339   2.161339   2.161339   2.161339   2.161339   2.161339   2.128062   2.126223   2.144701   0.01939003 0.01939003 10.30223   10.94463   7.288991   11.06794   5.75       10.21748   -9999      -9999      -9999      5310.948   5972.923   61.03058   29.4176    5.780785  
11210      -9999      83.21684   2.148034   2.148034   2.148034   2.148034   2.148034   2.148034   2.148034   2.148034   2.081481   2.116162   2.114758   0.01939485 0.01939485 12.51712   12.50767   6.130843   11.06794   5.75       10.21185   -9999      -9999      -9999      5308.266   5954.793   68.57696   30.0675    5.780785  
11210.5    -9999      83.01683   2.134729   2.134729   2.134729   2.134729   2.134729   2.134729   2.134729   2.134729   2.0349     2.106102   2.084815   0.01939968 0.01939968 14.73202   14.0707    4.686627   11.06794   5.75       10.21687   -9999      -9999      -9999      5311.078   5952.997   70.74453   31.18594   5.780785  
11211      -9999      82.81683   2.134729   2.134729   2.134729   2.134729   2.134729   2.134729   2.134729   2.134729   2.0349     2.096041   2.084815   0.01940451 0.01940451 16.94691   15.63374   6.147733   10.21656   5.75       10.23002   -9999      -9999      -9999      5318.266   5960.999   67.83853   31.18594   5.819551  
11211.5    -9999      82.81683   2.132067   2.132067   2.132067   2.132067   2.132067   2.132067   2.132067   2.132067   2.032238   2.085981   2.082153   0.01940934 0.01940934 16.94691   15.63374   6.377867   9.365184   5.75       10.21753   -9999      -9999      -9999      5311.995   5956.993   65.10123   22.99729   5.858317  
11212      -9999      82.81683   2.129406   2.129405   2.129405   2.129405   2.129405   2.129405   2.129405   2.129405   2.029575   2.085981   2.07949    0.01940934 0.01940934 16.94691   15.63374   12.75573   8.513803   5.75       10.20612   -9999      -9999      -9999      5306.266   5954.779   67.47611   22.99729   5.858317  
11212.5    -9999      82.61683   2.126744   2.126744   2.126744   2.126744   2.126744   2.126744   2.126744   2.126744   2.026912   2.102079   2.076828   0.01940624 0.01940624 17.78742   16.86941   12.75573   8.513803   5.75       10.23169   -9999      -9999      -9999      5319.897   5979.695   70.7393    30.06113   5.777178  
11213      -9999      82.41683   2.126744   2.126744   2.126744   2.126744   2.126744   2.126744   2.126744   2.126744   2.026912   2.118178   2.076828   0.01940315 0.01940315 18.62794   18.10509   10.70571   8.513803   5.75       10.24927   -9999      -9999      -9999      5329.266   5979.695   71.01814   29.3993    5.696039  
11213.5    -9999      82.21683   2.119558   2.119558   2.119558   2.119558   2.119558   2.119558   2.119558   2.119558   2.029709   2.134276   2.074633   0.01940005 0.01940005 19.46845   19.34076   8.655677   8.513803   5.75       10.24927   -9999      -9999      -9999      5329.266   5988.04    71.01643   28.09755   5.614901  
11214      -9999      82.21683   2.112372   2.112372   2.112372   2.112372   2.112372   2.112372   2.112372   2.112372   2.032506   2.134276   2.072439   0.01940005 0.01940005 19.46845   19.34076   6.605649   8.513803   5.75       10.25199   -9999      -9999      -9999      5331.266   5998.45    71.00256   28.09755   5.614901  
11214.5    -9999      82.06127   2.105186   2.105186   2.105186   2.105186   2.105186   2.105186   2.105186   2.105186   2.035303   2.134276   2.070245   0.01940005 0.01940005 21.15631   20.53714   4.55562    8.513803   5.75       10.25199   -9999      -9999      -9999      5331.266   5998.45    70.86109   30.05986   5.601802  
