~Version
 VERS              .         2.0                           : CWLS LOG ASCII STANDARD - VERSION 2.0
 WRAP              .         NO                            : ONE LINE PER DEPTH STEP
 DLM               .         SPACE                         : DELIMITING CHARACTER(SPACE TAB OR COMMA)
~Well Information
#_______________________________________________________________________________
#
#PARAMETER_NAME    .UNIT     VALUE                         : DESCRIPTION
#_______________________________________________________________________________
STRT               .ft       11140                         : First reference value
STOP               .ft       11397.5                       : Last reference value
STEP               .ft       0.5                           : Step increment
NULL               .         -9999                         : Missing value
COMP               .                                       : Company
WELL               .         2/4-X-29 A                    : Well name
FLD                .                                       : Field
LOC                .                                       : Location
CNTY               .                                       : County
STAT               .                                       : State
CTRY               .                                       : Country
SRVC               .                                       : Service Company
DATE               .                                       : Date
API                .                                       : API number
~Parameter Information Block
#_______________________________________________________________________________
#
#PARAMETER_NAME    .UNIT     VALUE                         : DESCRIPTION
#_______________________________________________________________________________
SET                .         Run 400 Eko X_50              : 
TLFamily_ADTEMP-T  .         Tool Temperature              : 
TLFamily_ADXT      .         Exposure Time                 : 
TLFamily_ALCDBQ-T  .         Bottom Quadrant Density       : 
TLFamily_ALCDH-T   .         Density Image                 : 
TLFamily_ALCDLC-T  .         Best Rapid Sampling Density   : 
TLFamily_ALCDTQ-T  .         Top Quadrant Density          : 
TLFamily_ALDCA-T   .         Bulk Density Correction       : 
TLFamily_ALDCLC-T  .         Bulk Density Correction       : 
TLFamily_ARH16PC-T .         Shallow Phase Shift Resistivity: 
TLFamily_ARM48PC-T .         Deep Phase Shift Resistivity  : 
TLFamily_BGCGC-T   .         At Bit Gamma Ray              : 
TLFamily_DEPT      .         Measured Depth                : 
TLFamily_GMGRCC-T  .         Gamma Ray                     : 
TLFamily_GMHSU-T   .                                       : 
TLFamily_PWEA      .         PWD Equivalent Mud Weight     : 
TLFamily_PWEAAF    .         PWD Pumps Off Equivalent Mud Weight: 
TLFamily_PWEANF    .         PWD Min Pumps Off Equivalent Mud Weight: 
TLFamily_PWEAXF    .         PWD Max Pumps Off Equivalent Mud Weight: 
TLFamily_PWPA      .         PWD Annular Pressure          : 
TLFamily_PWPI      .                                       : 
TLFamily_ROPA      .         CPI Rate of Penetration       : 
TLFamily_TNPL-T    .         Limestone Neutron Porosity    : 
TLFamily_XBDEHC-T  .         Waveform Spectrum             : 
~Curve Information
#_______________________________________________________________________________
#
#LOGNAME           .UNIT     LOG_ID                        : DESCRIPTION
#_______________________________________________________________________________
DEPT               .ft                                     : DEPT/Depth 
ADTEMP-T           .degF                                   : ADTEMP-T/ADR Temperature RT 
ADXT               .min                                    : ADXT/ADR Formation Exp Time 
ALCDBQ-T           .g/cc                                   : ALCDBQ-T/ALD Comp Den B-Quad RT 
ALCDH-T[0]         .g/cc                                   : ALCDH-T/ALD Comp Den Azi HS RT 
ALCDH-T[1]         .g/cc                                   : ALCDH-T/ALD Comp Den Azi HS RT 
ALCDH-T[2]         .g/cc                                   : ALCDH-T/ALD Comp Den Azi HS RT 
ALCDH-T[3]         .g/cc                                   : ALCDH-T/ALD Comp Den Azi HS RT 
ALCDH-T[4]         .g/cc                                   : ALCDH-T/ALD Comp Den Azi HS RT 
ALCDH-T[5]         .g/cc                                   : ALCDH-T/ALD Comp Den Azi HS RT 
ALCDH-T[6]         .g/cc                                   : ALCDH-T/ALD Comp Den Azi HS RT 
ALCDH-T[7]         .g/cc                                   : ALCDH-T/ALD Comp Den Azi HS RT 
ALCDLC-T           .g/cc                                   : ALCDLC-T/ALD LCRB Comp Density RT 
ALCDTQ-T           .g/cc                                   : ALCDTQ-T/ALD Comp Den T-Quad RT 
ALDCA-T            .g/cc                                   : ALDCA-T/ALD Average Den Corr RT 
ALDCLC-T           .g/cc                                   : ALDCLC-T/ALD LCRB Density Corr RT 
ARH16PC-T          .ohmm                                   : ARH16PC-T/Avg 16in 2M Ph Res RT 
ARM48PC-T          .ohmm                                   : ARM48PC-T/Avg 48in 500k Ph Res RT 
BGCGC-T            .api                                    : BGCGC-T/ABG Comb Gamma Ray BC RT 
GMGRCC-T           .api                                    : GMGRCC-T/GM Comb Gamma Ray RT BCor 
GMHSU-T            .in                                     : GMHSU-T/GM Hole Size Used RT 
PWEA               .ppg                                    : PWEA/PWD Annular EMW 
PWEAAF             .ppg                                    : PWEAAF/PWD Avg POff Annular EMW 
PWEANF             .ppg                                    : PWEANF/PWD Min POff Annular EMW 
PWEAXF             .ppg                                    : PWEAXF/PWD Max POff Annular EMW 
PWPA               .psig                                   : PWPA/PWD Annular Pressure 
PWPI               .psig                                   : PWPI/PWD Internal Pressure 
ROPA               .fph                                    : ROPA/Avg Rate of Penetration 
TNPL-T             .pu                                     : TNPL-T/CTN Porosity Limestone RT 
XBDEHC-T           .in                                     : XBDEHC-T/XCAL Eqv Hole Diam Cor RT 
~Ascii
# ...
11165      213.8      119.2614   2.163987   2.163987   2.163987   2.163987   2.163987   2.163987   2.163987   2.163987   2.163987   2.142309   2.163987   -0.01188925 -0.01188925 2.720035   3.213689   13.66686   12.77071   5.75       9.950158   -9999      -9999      -9999      5149.934   5850.039   35.44569   26.22718   5.844207  
11165.5    -9999      118.2058   2.16931    2.169311   2.169311   2.169311   2.169311   2.169311   2.169311   2.169311   2.169311   2.142309   2.16931    -0.01188925 -0.01188925 3.119276   3.696552   17.31135   13.62209   5.75       9.938523   -9999      -9999      -9999      5144.267   5850.039   39.81474   27.44965   5.844207  
11166      -9999      117.1502   2.174634   2.174634   2.174634   2.174634   2.174634   2.174634   2.174634   2.174634   2.174634   2.128894   2.174634   -0.001469564 -0.001469564 3.518516   4.179416   17.31135   14.47347   5.75       9.938523   -9999      -9999      -9999      5144.267   5850.039   49.56793   28.67211   5.792618  
11166.5    -9999      117.1502   2.174634   2.174634   2.174634   2.174634   2.174634   2.174634   2.174634   2.174634   2.174634   2.115479   2.174634   0.008950121 0.008950121 3.518516   4.179416   15.43759   14.47347   5.75       9.942975   -9999      -9999      -9999      5146.867   5845.466   23.63664   28.67211   5.74103   
11167      -9999      117.1502   2.190599   2.124057   2.157335   2.190599   2.190599   2.190599   2.190599   2.157335   2.124057   2.102065   2.124057   0.01936981 0.01936981 3.518516   4.179416   15.03424   14.47347   5.75       9.947427   -9999      -9999      -9999      5149.467   5840.893   2.535745   27.82695   5.689442  
11167.5    -9999      116.3336   2.206564   2.07348    2.140036   2.206564   2.206564   2.206564   2.206564   2.140036   2.07348    2.102065   2.07348    0.01936981 0.01936981 4.123798   4.584682   17.31135   14.89916   5.75       9.95188    -9999      -9999      -9999      5152.067   5836.32    35.90352   26.98178   5.689442  
11168      -9999      115.5169   2.22253    2.022903   2.122737   2.22253    2.22253    2.22253    2.22253    2.122737   2.022903   2.166449   2.022903   0.01936956 0.01936956 4.72908    4.989947   17.31135   15.32485   5.75       9.956331   -9999      -9999      -9999      5154.667   5831.747   54.07144   26.13662   5.921999  
11168.5    -9999      114.7002   2.22253    2.022903   2.122737   2.22253    2.22253    2.22253    2.22253    2.122737   2.022903   2.230833   2.022903   0.01936931 0.01936931 5.334362   5.395213   16.74524   15.32485   5.75       9.960783   -9999      -9999      -9999      5157.267   5831.747   50.36667   26.13662   5.921999  
11169      -9999      114.7002   2.182618   2.182618   2.182618   2.182618   2.182618   2.182618   2.182618   2.182618   2.282381   2.230833   2.232499   0.01936931 0.01936931 5.334362   5.395213   12.75573   15.32485   5.75       9.960783   -9999      -9999      -9999      5157.267   5831.747   46.16578   26.13662   5.601827  
11169.5    -9999      114.4836   2.182618   2.182618   2.182618   2.182618   2.182618   2.182618   2.182618   2.182618   2.282381   2.158409   2.232499   -0.01188178 -0.01188178 5.681215   5.942268   12.75573   15.32485   5.75       9.943912   -9999      -9999      -9999      5148.934   5835.81    53.37113   26.36238   5.601827  
11170      -9999      114.2669   2.126718   2.126718   2.159996   2.126718   2.126718   2.126718   2.126718   2.126718   2.226505   2.158409   2.176611   -0.01188178 -0.01188178 6.028069   6.489324   15.48911   15.32485   5.75       9.92704    -9999      -9999      -9999      5140.601   5839.873   59.32183   26.58813   5.635293  
11170.5    -9999      114.0502   2.070817   2.070817   2.137375   2.070817   2.070817   2.070817   2.070817   2.070817   2.170629   2.158409   2.120723   -0.01188178 -0.01188178 6.374923   7.036379   15.48911   12.34501   5.75       9.910169   -9999      -9999      -9999      5132.267   5843.935   61.31731   26.81389   5.635293  
11171      -9999      113.8336   2.014917   2.014917   2.114753   2.014917   2.014917   2.014917   2.014917   2.014917   2.114753   2.110106   2.064835   -0.01187926 -0.01187926 6.721776   7.583434   10.02236   9.365184   5.75       9.910169   -9999      -9999      -9999      5132.267   5843.935   66.65677   27.03965   5.557779  
11171.5    -9999      113.8336   2.014917   2.014917   2.114753   2.014917   2.014917   2.014917   2.014917   2.014917   2.114753   2.061803   2.064835   -0.01187674 -0.01187674 6.721776   7.583434   10.02236   9.365184   5.75       9.910169   -9999      -9999      -9999      5132.267   5843.935   78.27541   27.2654    5.630713  
11172      -9999      113.8336   2.004931   2.004931   2.079808   2.004931   2.004931   2.004931   2.004931   2.029893   2.104771   2.0135     2.054851   -0.01187422 -0.01187422 6.721776   7.583434   11.84461   9.365184   5.75       9.939113   -9999      -9999      -9999      5147.6     5850.042   81.1593    27.2654    5.829026  
11172.5    -9999      113.7669   1.994945   1.994945   2.044863   1.994945   1.994945   1.994945   1.994945   2.04487    2.094788   2.0135     2.044866   -0.01187422 -0.01187422 8.456273   8.287079   11.84461   9.790874   5.75       9.968057   -9999      -9999      -9999      5162.934   5856.149   79.70241   27.05375   5.829026  
11173      -9999      113.7002   1.984959   1.984959   2.009918   1.984959   1.984959   1.984959   1.984959   2.059846   2.084805   1.992024   2.034882   -0.02229259 -0.02229259 10.19077   8.990723   10.10845   10.21657   5.75       9.997001   -9999      -9999      -9999      5178.267   5856.149   84.69164   26.8421    5.598691  
11173.5    -9999      113.7002   1.974972   1.974972   1.974972   1.974972   1.974972   1.974972   1.974972   2.074822   2.074822   1.970547   2.024897   -0.03271097 -0.03271097 10.19077   8.990723   9.111239   10.21657   5.75       9.997001   -9999      -9999      -9999      5178.267   5856.149   87.84151   26.63045   5.678575  
11174      -9999      113.7002   1.974972   1.974972   1.974972   1.974972   1.974972   1.974972   1.974972   2.074822   2.074822   1.94907    2.024897   -0.04312934 -0.04312934 10.19077   8.990723   6.377867   11.91932   5.75       9.937741   -9999      -9999      -9999      5148.267   5862.266   87.19726   26.41879   5.717784  
11174.5    -9999      113.6419   2.010919   2.010919   2.010919   2.010919   2.010919   2.010919   2.010919   2.060844   2.060844   1.94907    2.035881   -0.04312934 -0.04312934 11.22592   9.186159   6.377867   11.91932   5.75       9.937741   -9999      -9999      -9999      5148.267   5862.266   88.23873   26.41879   5.696492  
11175      -9999      113.5836   2.046865   2.046865   2.046865   2.046865   2.046865   2.046865   2.046865   2.046865   2.046865   1.94907    2.046865   -0.04312934 -0.04312934 12.26107   9.381597   8.427896   13.62209   5.75       9.937741   -9999      -9999      -9999      5148.267   5862.266   89.25214   26.41879   5.6752    
11175.5    -9999      113.5836   2.046865   2.046865   2.046865   2.046865   2.046865   2.046865   2.046865   2.046865   2.046865   2.053739   2.046865   -0.01188171 -0.01188171 12.26107   9.381597   10.47793   13.85029   5.75       9.992478   -9999      -9999      -9999      5177.267   5825.662   84.15483   26.32472   5.624125  
11176      -9999      113.228    2.123373   2.10675    2.139996   2.10675    2.139996   2.10675    2.10675    2.10675    2.10675    2.158408   2.10675    0.01936593 0.01936593 10.21673   8.57596    12.52795   15.20243   5.75       9.992478   -9999      -9999      -9999      5177.267   5825.662   73.04488   26.23065   5.754882  
11176.5    -9999      112.8724   2.199881   2.166635   2.233128   2.166635   2.233128   2.166635   2.166635   2.166635   2.166635   2.158408   2.166635   0.01936593 0.01936593 8.1724     7.770323   14.57798   15.80074   5.75       9.983095   -9999      -9999      -9999      5172.767   5834.799   63.02174   26.13658   5.729024  
11177      -9999      112.5169   2.276389   2.22652    2.326259   2.22652    2.326259   2.22652    2.22652    2.22652    2.22652    2.195957   2.22652    0.008950166 0.008950166 6.128066   6.964686   14.57798   16.17623   5.75       9.973712   -9999      -9999      -9999      5168.267   5843.935   57.70046   26.13658   5.729024  
