~Version
 VERS              .         2.0                           : CWLS LOG ASCII STANDARD - VERSION 2.0
 WRAP              .         NO                            : ONE LINE PER DEPTH STEP
 DLM               .         SPACE                         : DELIMITING CHARACTER(SPACE TAB OR COMMA)
~Well Information
#_______________________________________________________________________________
#
#PARAMETER_NAME    .UNIT     VALUE                         : DESCRIPTION
#_______________________________________________________________________________
STRT               .ft       11140                         : First reference value
STOP               .ft       11397.5                       : Last reference value
STEP               .ft       0.5                           : Step increment
NULL               .         -9999                         : Missing value
COMP               .                                       : Company
WELL               .         2/4-X-29 A                    : Well name
FLD                .                                       : Field
LOC                .                                       : Location
CNTY               .                                       : County
STAT               .                                       : State
CTRY               .                                       : Country
SRVC               .                                       : Service Company
DATE               .                                       : Date
API                .                                       : API number
~Parameter Information Block
#_______________________________________________________________________________
#
#PARAMETER_NAME    .UNIT     VALUE                         : DESCRIPTION
#_______________________________________________________________________________
SET                .         Run 400 Eko X_50              : 
TLFamily_ADTEMP-T  .         Tool Temperature              : 
TLFamily_ADXT      .         Exposure Time                 : 
TLFamily_ALCDBQ-T  .         Bottom Quadrant Density       : 
TLFamily_ALCDH-T   .         Density Image                 : 
TLFamily_ALCDLC-T  .         Best Rapid Sampling Density   : 
TLFamily_ALCDTQ-T  .         Top Quadrant Density          : 
TLFamily_ALDCA-T   .         Bulk Density Correction       : 
TLFamily_ALDCLC-T  .         Bulk Density Correction       : 
TLFamily_ARH16PC-T .         Shallow Phase Shift Resistivity: 
TLFamily_ARM48PC-T .         Deep Phase Shift Resistivity  : 
TLFamily_BGCGC-T   .         At Bit Gamma Ray              : 
TLFamily_DEPT      .         Measured Depth                : 
TLFamily_GMGRCC-T  .         Gamma Ray                     : 
TLFamily_GMHSU-T   .                                       : 
TLFamily_PWEA      .         PWD Equivalent Mud Weight     : 
TLFamily_PWEAAF    .         PWD Pumps Off Equivalent Mud Weight: 
TLFamily_PWEANF    .         PWD Min Pumps Off Equivalent Mud Weight: 
TLFamily_PWEAXF    .         PWD Max Pumps Off Equivalent Mud Weight: 
TLFamily_PWPA      .         PWD Annular Pressure          : 
TLFamily_PWPI      .                                       : 
TLFamily_ROPA      .         CPI Rate of Penetration       : 
TLFamily_TNPL-T    .         Limestone Neutron Porosity    : 
TLFamily_XBDEHC-T  .         Waveform Spectrum             : 
~Curve Information
#_______________________________________________________________________________
#
#LOGNAME           .UNIT     LOG_ID                        : DESCRIPTION
#_______________________________________________________________________________
DEPT               .ft                                     : DEPT/Depth 
ADTEMP-T           .degF                                   : ADTEMP-T/ADR Temperature RT 
ADXT               .min                                    : ADXT/ADR Formation Exp Time 
ALCDBQ-T           .g/cc                                   : ALCDBQ-T/ALD Comp Den B-Quad RT 
ALCDH-T[0]         .g/cc                                   : ALCDH-T/ALD Comp Den Azi HS RT 
ALCDH-T[1]         .g/cc                                   : ALCDH-T/ALD Comp Den Azi HS RT 
ALCDH-T[2]         .g/cc                                   : ALCDH-T/ALD Comp Den Azi HS RT 
ALCDH-T[3]         .g/cc                                   : ALCDH-T/ALD Comp Den Azi HS RT 
ALCDH-T[4]         .g/cc                                   : ALCDH-T/ALD Comp Den Azi HS RT 
ALCDH-T[5]         .g/cc                                   : ALCDH-T/ALD Comp Den Azi HS RT 
ALCDH-T[6]         .g/cc                                   : ALCDH-T/ALD Comp Den Azi HS RT 
ALCDH-T[7]         .g/cc                                   : ALCDH-T/ALD Comp Den Azi HS RT 
ALCDLC-T           .g/cc                                   : ALCDLC-T/ALD LCRB Comp Density RT 
ALCDTQ-T           .g/cc                                   : ALCDTQ-T/ALD Comp Den T-Quad RT 
ALDCA-T            .g/cc                                   : ALDCA-T/ALD Average Den Corr RT 
ALDCLC-T           .g/cc                                   : ALDCLC-T/ALD LCRB Density Corr RT 
ARH16PC-T          .ohmm                                   : ARH16PC-T/Avg 16in 2M Ph Res RT 
ARM48PC-T          .ohmm                                   : ARM48PC-T/Avg 48in 500k Ph Res RT 
BGCGC-T            .api                                    : BGCGC-T/ABG Comb Gamma Ray BC RT 
GMGRCC-T           .api                                    : GMGRCC-T/GM Comb Gamma Ray RT BCor 
GMHSU-T            .in                                     : GMHSU-T/GM Hole Size Used RT 
PWEA               .ppg                                    : PWEA/PWD Annular EMW 
PWEAAF             .ppg                                    : PWEAAF/PWD Avg POff Annular EMW 
PWEANF             .ppg                                    : PWEANF/PWD Min POff Annular EMW 
PWEAXF             .ppg                                    : PWEAXF/PWD Max POff Annular EMW 
PWPA               .psig                                   : PWPA/PWD Annular Pressure 
PWPI               .psig                                   : PWPI/PWD Internal Pressure 
ROPA               .fph                                    : ROPA/Avg Rate of Penetration 
TNPL-T             .pu                                     : TNPL-T/CTN Porosity Limestone RT 
XBDEHC-T           .in                                     : XBDEHC-T/XCAL Eqv Hole Diam Cor RT 
~Ascii
# ...
11227.5    -9999      50.13343   2.010555   2.071628   2.071628   2.010555   2.010555   2.010555   2.010555   2.071628   2.071628   1.997451   2.071628   -0.01174186 -0.01174186 19.46845   21.97456   6.377867   5.108282   5.75       10.30506   -9999      -9999      -9999      5365.766   6058.235   92.93091   27.24895   5.869936  
11228      -9999      50.13343   1.991006   1.991006   1.991006   1.991006   1.991006   1.991006   1.991006   1.991006   1.991006   1.997448   1.991006   -0.01174745 -0.01174745 19.46845   21.97456   6.377867   6.385353   5.75       10.30531   -9999      -9999      -9999      5366.266   6048.75    92.96891   31.56455   5.869936  
11228.5    -9999      50.18343   1.991006   1.991006   1.991006   1.991006   1.991006   1.991006   1.991006   1.991006   1.991006   1.997447   1.991006   -0.01174963 -0.01174963 20.43403   21.97456   6.377867   7.662423   5.75       10.30531   -9999      -9999      -9999      5366.266   6048.75    92.75282   32.48264   5.786356  
11229      215.6      50.23343   2.006991   2.006991   2.006991   2.006991   2.006991   2.006991   2.006991   2.006991   2.006991   1.989403   2.006991   -0.01173028 -0.01173028 21.3996    21.97456   6.377867   7.662423   5.75       10.30644   -9999      -9999      -9999      5367.266   6036.149   92.86848   33.35163   5.702775  
11229.5    215.6      50.28343   1.999423   1.999424   1.999424   1.999424   1.999424   1.999424   1.999424   1.999424   1.999424   1.989403   1.999423   -0.01173028 -0.01173028 22.36518   21.97456   6.377867   7.662423   5.75       10.30756   -9999      -9999      -9999      5368.266   6023.548   92.74985   33.14304   5.702775  
11230      -9999      52.86142   1.975021   1.975021   1.975021   1.975021   1.975021   1.975021   1.975021   1.975021   1.975021   1.941064   1.975021   -0.04301532 -0.04301532 23.67954   21.97456   6.377867   7.37863    5.75       10.30756   -9999      -9999      -9999      5368.266   6023.548   92.89655   32.94454   5.702775  
11230.5    -9999      54.53344   1.964011   1.964011   1.964011   1.964011   1.964011   1.964011   1.964011   1.964011   1.964011   1.941064   1.964011   -0.04301532 -0.04301532 24.53201   21.97456   6.377867   7.094837   5.75       10.31727   -9999      -9999      -9999      5373.766   6039.308   92.8958    32.86173   5.691797  
11231      -9999      54.71677   1.950244   1.950244   1.950244   1.950244   1.950244   1.950244   1.950244   1.950244   1.950244   1.949118   1.950244   -0.01176738 -0.01176738 24.53201   22.45223   6.833429   6.811043   5.75       10.32698   -9999      -9999      -9999      5379.266   6055.067   92.85211   33.71093   5.68082   
11231.5    -9999      54.90011   1.9438     1.9438     1.9438     1.9438     1.9438     1.9438     1.9438     1.9438     1.9438     1.949118   1.9438     -0.01176771 -0.01176771 24.53201   22.92991   7.288991   6.811043   5.75       10.32698   -9999      -9999      -9999      5379.266   6055.067   92.93153   33.71093   5.68082   
11232      -9999      54.90011   1.94306    1.94306    1.94306    1.94306    1.94306    1.94306    1.94306    1.94306    1.94306    1.949118   1.94306    -0.01176771 -0.01176771 24.53201   22.92991   7.744553   6.811043   5.75       10.32698   -9999      -9999      -9999      5379.266   6055.067   92.79733   34.33693   5.695635  
11232.5    -9999      54.91677   2.115496   2.036297   2.115496   2.115496   2.115496   2.115496   2.115496   2.115496   2.115496   2.094066   2.075896   0.01949193 0.01949193 23.26612   22.24283   8.200115   7.37863    5.75       10.3217    -9999      -9999      -9999      5377.266   6036.136   92.82782   34.8334    5.71045   
11233      -9999      54.93344   2.08771    2.081625   2.094089   2.08771    2.08771    2.08771    2.08771    2.08771    2.094089   2.082749   2.087857   0.01819757 0.01819757 22.00023   21.55576   8.200115   7.946217   5.75       10.3217    -9999      -9999      -9999      5377.266   6036.136   92.76173   30.61941   5.725265  
11233.5    -9999      54.95011   1.987976   2.08012    2.043343   1.987976   1.987976   1.987976   1.987976   1.987976   2.043343   2.016349   2.061731   0.004081772 0.004081772 20.73434   20.86868   9.33902    8.513803   5.75       10.3217    9.635736   9.631897   9.823833   5377.266   6036.136   92.94069   30.61941   5.725265  
11234      -9999      54.96678   1.941725   1.992769   1.952386   1.941725   1.941725   1.941725   1.941725   1.941725   1.952386   1.954774   1.972578   -0.01174877 -0.01174877 19.46845   20.18161   10.47792   8.513803   5.75       10.30511   9.635736   9.631897   9.823833   5369.266   6042.439   92.97835   31.45751   5.688313  
11234.5    -9999      54.96678   1.935084   1.935084   1.935084   1.935084   1.935084   1.935084   1.935084   1.935084   1.935084   1.941079   1.935084   -0.01173065 -0.01173065 19.46845   20.18161   11.61683   8.513803   5.75       10.30193   -9999      -9999      -9999      5367.683   6030.57    92.79915   31.45751   5.651361  
11235      -9999      54.95011   2.09485    1.995006   2.09485    2.09485    2.09485    2.09485    2.09485    2.09485    1.995006   1.941079   1.995006   -0.01173065 -0.01173065 17.89629   19.12862   12.75573   8.513803   5.75       10.28904   -9999      -9999      -9999      5361.266   6004.715   92.61948   35.39649   5.614409  
11235.5    -9999      54.93344   2.09485    1.995006   2.09485    2.09485    2.09485    2.09485    2.09485    2.09485    1.995006   2.110177   1.995006   0.01951513 0.01951513 16.32412   18.07563   12.75573   8.513803   5.75       10.28904   -9999      -9999      -9999      5361.266   6004.715   92.89075   33.19503   5.614409  
11236      -9999      54.91677   2.09485    1.995006   2.09485    2.09485    2.09485    2.09485    2.09485    2.09485    1.995006   2.110177   1.995006   0.01951513 0.01951513 14.75195   17.02265   12.75573   8.513803   5.75       10.36808   -9999      -9999      -9999      5403.265   6055.067   92.36066   31.16547   5.614409  
11236.5    -9999      54.91677   2.022972   2.022972   2.022972   2.022972   2.022972   2.022972   2.022972   2.022972   2.022972   2.110177   2.022972   0.01951513 0.01951513 14.75195   17.02265   11.29794   8.513803   5.75       10.36808   -9999      -9999      -9999      5403.265   6055.067   91.45657   31.16673   5.671775  
11237      215.6      54.92511   2.017926   2.017926   2.017926   2.017926   2.017926   2.017926   2.017926   2.017926   2.017926   1.995021   2.017926   -0.01172313 -0.01172313 14.42621   16.67542   9.840138   8.513803   5.75       10.36808   -9999      -9999      -9999      5403.265   6055.067   91.72018   32.10017   5.729141  
11237.5    215.6      54.93344   1.991767   1.991767   1.991767   1.991767   1.991767   1.991767   1.991767   1.991767   1.991767   1.993347   1.991767   -0.01172507 -0.01172507 14.10046   16.32819   8.382339   8.797597   5.75       10.33844   -9999      -9999      -9999      5388.266   6058.229   92.58012   32.01615   5.786506  
11238      215.6      54.94178   2.043699   2.051033   2.051033   2.043699   2.043699   2.043699   2.043699   2.043699   2.043699   2.043698   2.047366   0.01141392 0.01141392 13.77471   15.98096   6.924541   9.08139    5.75       10.30879   -9999      -9999      -9999      5373.266   6061.391   92.85305   32.01615   5.786506  
11238.5    -9999      54.95011   1.988195   2.080869   2.080869   1.988195   1.988195   1.988195   1.988195   1.988195   1.988195   2.020671   2.034532   0.006203945 0.006203945 13.44897   15.63374   5.466743   9.365184   5.75       10.30879   -9999      -9999      -9999      5373.266   6061.391   92.591     33.41951   5.692348  
11239      -9999      54.95011   2.003247   2.039921   2.039921   2.003247   2.003247   2.003247   2.003247   2.003247   1.940061   1.965248   1.989991   -0.01171486 -0.01171486 13.44897   15.63374   5.466743   9.365184   5.75       10.31002   -9999      -9999      -9999      5374.266   6063.501   92.54555   33.41951   5.598188  
11239.5    -9999      55.18835   2.014983   2.014983   2.014983   2.014983   2.014983   2.014983   2.014983   2.014983   1.915115   1.992472   1.965049   -0.01172265 -0.01172265 15.17751   16.76425   6.377868   9.365184   5.75       10.31125   -9999      -9999      -9999      5375.266   6065.611   92.68689   35.67797   5.598188  
