~Version
 VERS              .         2.0                           : CWLS LOG ASCII STANDARD - VERSION 2.0
 WRAP              .         NO                            : ONE LINE PER DEPTH STEP
 DLM               .         SPACE                         : DELIMITING CHARACTER(SPACE TAB OR COMMA)
~Well Information
#_______________________________________________________________________________
#
#PARAMETER_NAME    .UNIT     VALUE                         : DESCRIPTION
#_______________________________________________________________________________
STRT               .ft       11140                         : First reference value
STOP               .ft       11397.5                       : Last reference value
STEP               .ft       0.5                           : Step increment
NULL               .         -9999                         : Missing value
COMP               .                                       : Company
WELL               .         2/4-X-29 A                    : Well name
FLD                .                                       : Field
LOC                .                                       : Location
CNTY               .                                       : County
STAT               .                                       : State
CTRY               .                                       : Country
SRVC               .                                       : Service Company
DATE               .                                       : Date
API                .                                       : API number
~Parameter Information Block
#_______________________________________________________________________________
#
#PARAMETER_NAME    .UNIT     VALUE                         : DESCRIPTION
#_______________________________________________________________________________
SET                .         Run 400 Eko X_50              : 
TLFamily_ADTEMP-T  .         Tool Temperature              : 
TLFamily_ADXT      .         Exposure Time                 : 
TLFamily_ALCDBQ-T  .         Bottom Quadrant Density       : 
TLFamily_ALCDH-T   .         Density Image                 : 
TLFamily_ALCDLC-T  .         Best Rapid Sampling Density   : 
TLFamily_ALCDTQ-T  .         Top Quadrant Density          : 
TLFamily_ALDCA-T   .         Bulk Density Correction       : 
TLFamily_ALDCLC-T  .         Bulk Density Correction       : 
TLFamily_ARH16PC-T .         Shallow Phase Shift Resistivity: 
TLFamily_ARM48PC-T .         Deep Phase Shift Resistivity  : 
TLFamily_BGCGC-T   .         At Bit Gamma Ray              : 
TLFamily_DEPT      .         Measured Depth                : 
TLFamily_GMGRCC-T  .         Gamma Ray                     : 
TLFamily_GMHSU-T   .                                       : 
TLFamily_PWEA      .         PWD Equivalent Mud Weight     : 
TLFamily_PWEAAF    .         PWD Pumps Off Equivalent Mud Weight: 
TLFamily_PWEANF    .         PWD Min Pumps Off Equivalent Mud Weight: 
TLFamily_PWEAXF    .         PWD Max Pumps Off Equivalent Mud Weight: 
TLFamily_PWPA      .         PWD Annular Pressure          : 
TLFamily_PWPI      .                                       : 
TLFamily_ROPA      .         CPI Rate of Penetration       : 
TLFamily_TNPL-T    .         Limestone Neutron Porosity    : 
TLFamily_XBDEHC-T  .         Waveform Spectrum             : 
~Curve Information
#_______________________________________________________________________________
#
#LOGNAME           .UNIT     LOG_ID                        : DESCRIPTION
#_______________________________________________________________________________
DEPT               .ft                                     : DEPT/Depth 
ADTEMP-T           .degF                                   : ADTEMP-T/ADR Temperature RT 
ADXT               .min                                    : ADXT/ADR Formation Exp Time 
ALCDBQ-T           .g/cc                                   : ALCDBQ-T/ALD Comp Den B-Quad RT 
ALCDH-T[0]         .g/cc                                   : ALCDH-T/ALD Comp Den Azi HS RT 
ALCDH-T[1]         .g/cc                                   : ALCDH-T/ALD Comp Den Azi HS RT 
ALCDH-T[2]         .g/cc                                   : ALCDH-T/ALD Comp Den Azi HS RT 
ALCDH-T[3]         .g/cc                                   : ALCDH-T/ALD Comp Den Azi HS RT 
ALCDH-T[4]         .g/cc                                   : ALCDH-T/ALD Comp Den Azi HS RT 
ALCDH-T[5]         .g/cc                                   : ALCDH-T/ALD Comp Den Azi HS RT 
ALCDH-T[6]         .g/cc                                   : ALCDH-T/ALD Comp Den Azi HS RT 
ALCDH-T[7]         .g/cc                                   : ALCDH-T/ALD Comp Den Azi HS RT 
ALCDLC-T           .g/cc                                   : ALCDLC-T/ALD LCRB Comp Density RT 
ALCDTQ-T           .g/cc                                   : ALCDTQ-T/ALD Comp Den T-Quad RT 
ALDCA-T            .g/cc                                   : ALDCA-T/ALD Average Den Corr RT 
ALDCLC-T           .g/cc                                   : ALDCLC-T/ALD LCRB Density Corr RT 
ARH16PC-T          .ohmm                                   : ARH16PC-T/Avg 16in 2M Ph Res RT 
ARM48PC-T          .ohmm                                   : ARM48PC-T/Avg 48in 500k Ph Res RT 
BGCGC-T            .api                                    : BGCGC-T/ABG Comb Gamma Ray BC RT 
GMGRCC-T           .api                                    : GMGRCC-T/GM Comb Gamma Ray RT BCor 
GMHSU-T            .in                                     : GMHSU-T/GM Hole Size Used RT 
PWEA               .ppg                                    : PWEA/PWD Annular EMW 
PWEAAF             .ppg                                    : PWEAAF/PWD Avg POff Annular EMW 
PWEANF             .ppg                                    : PWEANF/PWD Min POff Annular EMW 
PWEAXF             .ppg                                    : PWEAXF/PWD Max POff Annular EMW 
PWPA               .psig                                   : PWPA/PWD Annular Pressure 
PWPI               .psig                                   : PWPI/PWD Internal Pressure 
ROPA               .fph                                    : ROPA/Avg Rate of Penetration 
TNPL-T             .pu                                     : TNPL-T/CTN Porosity Limestone RT 
XBDEHC-T           .in                                     : XBDEHC-T/XCAL Eqv Hole Diam Cor RT 
~Ascii
# ...
11177.5    -9999      112.5169   2.276389   2.22652    2.326259   2.22652    2.326259   2.22652    2.22652    2.22652    2.22652    2.233506   2.22652    -0.001465592 -0.001465592 6.128066   6.964686   18.22248   16.17623   5.75       9.973712   -9999      -9999      -9999      5168.267   5843.935   48.15073   25.18911   5.685259  
11178      -9999      112.5169   2.276389   2.22652    2.326259   2.22652    2.326259   2.22652    2.22652    2.22652    2.22652    2.271056   2.22652    -0.01188135 -0.01188135 6.128066   6.964686   18.22248   17.4533    5.75       9.973758   -9999      -9999      -9999      5168.6     5850.042   35.75296   24.24163   5.685259  
11178.5    -9999      111.5169   2.279717   2.246471   2.312963   2.246471   2.312963   2.246471   2.246471   2.279704   2.246471   2.271056   2.24647    -0.01188135 -0.01188135 5.633197   6.519714   19.58916   18.73037   5.75       9.973803   -9999      -9999      -9999      5168.933   5856.149   30.58407   23.29416   5.751521  
11179      -9999      110.5169   2.283045   2.266421   2.299668   2.266421   2.299668   2.266421   2.266421   2.332889   2.266421   2.271056   2.266422   -0.01188135 -0.01188135 5.138327   6.074743   20.95585   20.00744   5.75       9.973848   -9999      -9999      -9999      5169.267   5856.149   33.54199   23.29416   5.751521  
11179.5    -9999      109.5169   2.286372   2.286372   2.286372   2.286372   2.286372   2.286372   2.286372   2.386074   2.286372   2.236191   2.286372   -0.001462348 -0.001462348 4.643458   5.629771   20.95585   21.28451   5.75       9.973848   -9999      -9999      -9999      5169.267   5856.149   31.788     23.29416   5.714379  
11180      213.8      109.5169   2.286372   2.286372   2.286372   2.286372   2.286372   2.286372   2.286372   2.386074   2.286372   2.201326   2.286372   0.008956654 0.008956654 4.643458   5.629771   7.288991   21.28451   5.75       9.965203   -9999      -9999      -9999      5165.267   5856.149   28.91278   23.29383   5.76055   
11180.5    213.8      109.5169   2.285873   2.273406   2.273406   2.29834    2.29834    2.273406   2.273406   2.348182   2.273406   2.166461   2.273406   0.01937566 0.01937566 4.643458   5.629771   7.288991   19.29795   5.75       9.965203   -9999      -9999      -9999      5165.267   5856.149   32.48586   23.29351   5.692651  
11181      -9999      107.6544   2.285373   2.26044    2.26044    2.310307   2.310307   2.26044    2.26044    2.31029    2.26044    2.166461   2.26044    0.01937566 0.01937566 4.816184   5.69096    8.402729   17.3114    5.75       9.960137   -9999      -9999      -9999      5163.267   5862.266   37.70281   23.29318   5.679865  
11181.5    -9999      105.7919   2.284874   2.247473   2.247473   2.322274   2.322274   2.247473   2.247473   2.272399   2.247473   2.200248   2.247474   0.01937734 0.01937734 4.98891    5.752149   9.111239   15.32485   5.75       9.960137   -9999      -9999      -9999      5163.267   5862.266   23.80755   23.29285   5.641313  
11182      -9999      103.9294   2.284374   2.234507   2.234507   2.334241   2.334241   2.234507   2.234507   2.234507   2.234507   2.234036   2.234507   0.01937903 0.01937903 5.161635   5.813338   9.111239   15.32485   5.75       9.960137   -9999      -9999      -9999      5163.267   5865.329   0.686069   23.29285   5.641313  
11182.5    -9999      102.0669   2.284374   2.234507   2.234507   2.334241   2.334241   2.234507   2.234507   2.234507   2.234507   2.267824   2.234507   0.01938071 0.01938071 5.334362   5.874527   23.68922   15.75054   5.75       9.97417    -9999      -9999      -9999      5170.934   5868.392   0          23.29285   5.585845  
11183      -9999      102.0669   2.278058   2.236502   2.236502   2.319614   2.319614   2.236502   2.236502   2.236502   2.236502   2.301612   2.236502   0.01938239 0.01938239 5.334362   5.874527   23.68922   16.17623   5.75       9.988201   -9999      -9999      -9999      5178.6     5871.454   0          23.95812   5.585845  
11183.5    -9999      100.5535   2.271742   2.238497   2.238497   2.304987   2.304987   2.238497   2.238497   2.238497   2.238497   2.3354     2.238497   0.01938408 0.01938408 5.240129   5.778664   14.57798   16.60192   5.75       10.00223   -9999      -9999      -9999      5186.267   5874.517   0          24.62338   5.752121  
11184      -9999      99.0402    2.265426   2.240492   2.240492   2.290359   2.290359   2.240492   2.240492   2.240492   2.240492   2.3354     2.240492   0.01938408 0.01938408 5.145895   5.682801   14.57798   17.02761   5.75       10.00223   -9999      -9999      -9999      5186.267   5874.517   1.686252   25.28865   5.752121  
11184.5    -9999      97.52686   2.25911    2.242487   2.242487   2.275732   2.275732   2.242487   2.242487   2.242487   2.242487   2.319314   2.242487   0.01938344 0.01938344 5.051662   5.586938   14.57798   17.02761   5.75       9.992607   -9999      -9999      -9999      5181.6     5874.517   26.76359   25.28865   5.57515   
11185      -9999      96.01353   2.252794   2.244483   2.244483   2.261105   2.261105   2.244483   2.244483   2.244483   2.244483   2.303229   2.244482   0.0193828  0.0193828  4.957429   5.491076   14.57798   16.74381   5.75       9.98298    -9999      -9999      -9999      5176.933   5874.517   38.64597   25.28865   5.627657  
11185.5    -9999      94.50019   2.246477   2.246477   2.246477   2.246477   2.246477   2.246477   2.246477   2.246477   2.246477   2.287143   2.246477   0.01938216 0.01938216 4.863196   5.395213   14.57798   16.46002   5.75       9.973353   -9999      -9999      -9999      5172.267   5874.517   38.84719   24.43335   5.719211  
11186      -9999      94.50019   2.246477   2.246477   2.246477   2.246477   2.246477   2.246477   2.246477   2.246477   2.246477   2.271058   2.246477   0.01938152 0.01938152 4.863196   5.395213   13.66686   16.17623   5.75       9.973353   -9999      -9999      -9999      5172.267   5874.517   38.80063   23.57806   5.812497  
11186.5    -9999      94.01686   2.246477   2.246477   2.246477   2.246477   2.246477   2.246477   2.246477   2.246477   2.246477   2.254972   2.246477   0.01938088 0.01938088 4.978265   5.512492   13.66686   16.17623   5.75       9.989088   -9999      -9999      -9999      5180.767   5877.586   38.98937   23.57806   5.679693  
11187      -9999      93.53352   2.170636   2.170636   2.170636   2.170636   2.170636   2.170636   2.170636   2.170636   2.170636   2.254972   2.170636   0.01938088 0.01938088 5.093334   5.629771   13.66686   15.75054   5.75       10.00482   -9999      -9999      -9999      5189.267   5880.656   40.21485   23.57806   5.597246  
11187.5    -9999      93.53352   2.094794   2.094794   2.094794   2.094794   2.094794   2.094794   2.094794   2.094794   2.094794   2.254972   2.094794   0.01938088 0.01938088 5.093334   5.629771   10.02236   15.32485   5.75       10.02056   -9999      -9999      -9999      5197.767   5883.725   42.1944    24.64908   5.763272  
11188      -9999      93.11685   2.094794   2.094794   2.094794   2.094794   2.094794   2.094794   2.094794   2.094794   2.094794   2.187904   2.094794   0.00896635 0.00896635 5.853225   6.280992   10.02236   14.89916   5.75       10.03629   -9999      -9999      -9999      5206.267   5886.794   44.24551   24.61577   5.763272  
11188.5    -9999      92.70019   2.094794   2.094794   2.094794   2.094794   2.094794   2.094794   2.094794   2.094794   2.094794   2.120835   2.094794   -0.001448179 -0.001448179 6.613117   6.932213   14.57798   14.47347   5.75       10.03629   -9999      -9999      -9999      5206.267   5886.794   46.41247   24.66062   5.574402  
11189      -9999      92.28352   2.108103   2.108103   2.108103   2.108103   2.108103   2.108103   2.108103   2.108103   2.108103   2.053766   2.108103   -0.01186271 -0.01186271 7.373008   7.583434   14.57798   14.47347   5.75       10.03629   -9999      -9999      -9999      5206.267   5884.747   47.59304   25.00192   5.574402  
11189.5    -9999      92.28352   2.121413   2.121413   2.121413   2.121413   2.121413   2.121413   2.121413   2.121413   2.121413   2.053766   2.121413   -0.01186271 -0.01186271 7.373008   7.583434   14.57798   13.62209   5.75       10.04782   -9999      -9999      -9999      5212.767   5882.7     47.61228   25.00192   5.693347  
