~Version
 VERS              .         2.0                           : CWLS LOG ASCII STANDARD - VERSION 2.0
 WRAP              .         NO                            : ONE LINE PER DEPTH STEP
 DLM               .         SPACE                         : DELIMITING CHARACTER(SPACE TAB OR COMMA)
~Well Information
#_______________________________________________________________________________
#
#PARAMETER_NAME    .UNIT     VALUE                         : DESCRIPTION
#_______________________________________________________________________________
STRT               .ft       11140                         : First reference value
STOP               .ft       11397.5                       : Last reference value
STEP               .ft       0.5                           : Step increment
NULL               .         -9999                         : Missing value
COMP               .                                       : Company
WELL               .         2/4-X-29 A                    : Well name
FLD                .                                       : Field
LOC                .                                       : Location
CNTY               .                                       : County
STAT               .                                       : State
CTRY               .                                       : Country
SRVC               .                                       : Service Company
DATE               .                                       : Date
API                .                                       : API number
~Parameter Information Block
#_______________________________________________________________________________
#
#PARAMETER_NAME    .UNIT     VALUE                         : DESCRIPTION
#_______________________________________________________________________________
SET                .         Run 400 Eko X_50              : 
TLFamily_ADTEMP-T  .         Tool Temperature              : 
TLFamily_ADXT      .         Exposure Time                 : 
TLFamily_ALCDBQ-T  .         Bottom Quadrant Density       : 
TLFamily_ALCDH-T   .         Density Image                 : 
TLFamily_ALCDLC-T  .         Best Rapid Sampling Density   : 
TLFamily_ALCDTQ-T  .         Top Quadrant Density          : 
TLFamily_ALDCA-T   .         Bulk Density Correction       : 
TLFamily_ALDCLC-T  .         Bulk Density Correction       : 
TLFamily_ARH16PC-T .         Shallow Phase Shift Resistivity: 
TLFamily_ARM48PC-T .         Deep Phase Shift Resistivity  : 
TLFamily_BGCGC-T   .         At Bit Gamma Ray              : 
TLFamily_DEPT      .         Measured Depth                : 
TLFamily_GMGRCC-T  .         Gamma Ray                     : 
TLFamily_GMHSU-T   .                                       : 
TLFamily_PWEA      .         PWD Equivalent Mud Weight     : 
TLFamily_PWEAAF    .         PWD Pumps Off Equivalent Mud Weight: 
TLFamily_PWEANF    .         PWD Min Pumps Off Equivalent Mud Weight: 
TLFamily_PWEAXF    .         PWD Max Pumps Off Equivalent Mud Weight: 
TLFamily_PWPA      .         PWD Annular Pressure          : 
TLFamily_PWPI      .                                       : 
TLFamily_ROPA      .         CPI Rate of Penetration       : 
TLFamily_TNPL-T    .         Limestone Neutron Porosity    : 
TLFamily_XBDEHC-T  .         Waveform Spectrum             : 
~Curve Information
#_______________________________________________________________________________
#
#LOGNAME           .UNIT     LOG_ID                        : DESCRIPTION
#_______________________________________________________________________________
DEPT               .ft                                     : DEPT/Depth 
ADTEMP-T           .degF                                   : ADTEMP-T/ADR Temperature RT 
ADXT               .min                                    : ADXT/ADR Formation Exp Time 
ALCDBQ-T           .g/cc                                   : ALCDBQ-T/ALD Comp Den B-Quad RT 
ALCDH-T[0]         .g/cc                                   : ALCDH-T/ALD Comp Den Azi HS RT 
ALCDH-T[1]         .g/cc                                   : ALCDH-T/ALD Comp Den Azi HS RT 
ALCDH-T[2]         .g/cc                                   : ALCDH-T/ALD Comp Den Azi HS RT 
ALCDH-T[3]         .g/cc                                   : ALCDH-T/ALD Comp Den Azi HS RT 
ALCDH-T[4]         .g/cc                                   : ALCDH-T/ALD Comp Den Azi HS RT 
ALCDH-T[5]         .g/cc                                   : ALCDH-T/ALD Comp Den Azi HS RT 
ALCDH-T[6]         .g/cc                                   : ALCDH-T/ALD Comp Den Azi HS RT 
ALCDH-T[7]         .g/cc                                   : ALCDH-T/ALD Comp Den Azi HS RT 
ALCDLC-T           .g/cc                                   : ALCDLC-T/ALD LCRB Comp Density RT 
ALCDTQ-T           .g/cc                                   : ALCDTQ-T/ALD Comp Den T-Quad RT 
ALDCA-T            .g/cc                                   : ALDCA-T/ALD Average Den Corr RT 
ALDCLC-T           .g/cc                                   : ALDCLC-T/ALD LCRB Density Corr RT 
ARH16PC-T          .ohmm                                   : ARH16PC-T/Avg 16in 2M Ph Res RT 
ARM48PC-T          .ohmm                                   : ARM48PC-T/Avg 48in 500k Ph Res RT 
BGCGC-T            .api                                    : BGCGC-T/ABG Comb Gamma Ray BC RT 
GMGRCC-T           .api                                    : GMGRCC-T/GM Comb Gamma Ray RT BCor 
GMHSU-T            .in                                     : GMHSU-T/GM Hole Size Used RT 
PWEA               .ppg                                    : PWEA/PWD Annular EMW 
PWEAAF             .ppg                                    : PWEAAF/PWD Avg POff Annular EMW 
PWEANF             .ppg                                    : PWEANF/PWD Min POff Annular EMW 
PWEAXF             .ppg                                    : PWEAXF/PWD Max POff Annular EMW 
PWPA               .psig                                   : PWPA/PWD Annular Pressure 
PWPI               .psig                                   : PWPI/PWD Internal Pressure 
ROPA               .fph                                    : ROPA/Avg Rate of Penetration 
TNPL-T             .pu                                     : TNPL-T/CTN Porosity Limestone RT 
XBDEHC-T           .in                                     : XBDEHC-T/XCAL Eqv Hole Diam Cor RT 
~Ascii
# ...
11290      -9999      142.5503   2.078907   2.078907   2.078907   2.078907   2.078907   2.078907   2.078907   2.028992   2.078907   2.118263   2.078907   0.05085284 0.05085284 12.85502   13.75993   6.833429   9.937674   5.75       -9999      -9999      -9999      -9999      -9999      -9999      42.28463   28.37749   -9999     
11290.5    -9999      142.1836   2.023      2.023      2.023      2.023      2.023      2.023      2.023      2.023      2.023      2.118263   2.023      0.05085284 0.05085284 13.44897   13.75993   7.061211   8.442532   5.75       -9999      -9999      -9999      -9999      -9999      -9999      65.82275   29.71042   -9999     
11291      -9999      142.1836   2.023      2.023      2.023      2.023      2.023      2.023      2.023      2.023      2.023      2.069955   2.023      0.03522494 0.03522494 13.44897   13.75993   7.288991   8.170529   5.75       -9999      -9999      -9999      -9999      -9999      -9999      74.4127    31.04335   -9999     
11291.5    -9999      142.1753   2.023      2.023      2.023      2.023      2.023      2.023      2.023      2.023      2.023      2.021647   2.023      0.01959703 0.01959703 13.14513   13.47329   7.288991   9.155147   5.75       -9999      -9999      -9999      -9999      -9999      -9999      79.44094   32.37627   -9999     
11292      -9999      142.1669   2.058945   2.058945   2.058945   2.058945   2.058945   2.058945   2.058945   2.058945   2.058945   2.021647   2.058945   0.01959703 0.01959703 12.84129   13.18664   7.288991   9.365184   5.75       -9999      -9999      -9999      -9999      -9999      -9999      82.72596   33.70921   -9999     
11292.5    221        142.1669   2.09489    2.09489    2.09489    2.09489    2.09489    2.09489    2.09489    2.09489    2.09489    2.021647   2.09489    0.01959703 0.01959703 12.84129   13.18664   9.111239   9.365184   5.75       -9999      -9999      -9999      -9999      -9999      -9999      82.71111   33.70921   -9999     
11293      221        142.1669   2.09489    2.09489    2.09489    2.09489    2.09489    2.09489    2.09489    2.09489    2.09489    2.061908   2.09489    0.01960752 0.01960752 12.84129   13.18664   10.93349   14.47347   5.75       -9999      -9999      -9999      -9999      -9999      -9999      82.87317   33.70921   -9999     
11293.5    -9999      140.6892   2.09489    2.09489    2.09489    2.09489    2.09489    2.09489    2.09489    2.09489    2.09489    2.10217    2.09489    0.01961801 0.01961801 12.28689   12.828     12.75573   14.47347   5.75       -9999      -9999      -9999      -9999      -9999      -9999      57.06737   -9999      -9999     
11294      -9999      139.2114   2.07093    2.07093    2.07093    2.07093    2.07093    2.07093    2.07093    2.07093    2.07093    2.10217    2.07093    0.01961801 0.01961801 11.73249   12.46936   12.75573   14.47347   5.75       -9999      -9999      -9999      -9999      -9999      -9999      5.118866   -9999      -9999     
11294.5    -9999      137.7336   2.04697    2.04697    2.04697    2.04697    2.04697    2.04697    2.04697    2.04697    2.04697    2.0807     2.04697    0.01961862 0.01961862 11.17809   12.11071   9.111239   9.365184   5.75       -9999      -9999      -9999      -9999      -9999      -9999      8.08447    -9999      -9999     
11295      -9999      137.7336   2.02301    2.02301    2.02301    2.02301    2.02301    2.02301    2.02301    2.02301    2.02301    2.059231   2.02301    0.01961922 0.01961922 11.17809   12.11071   9.111239   9.365184   5.75       -9999      -9999      -9999      -9999      -9999      -9999      55.63013   32.02328   -9999     
11295.5    -9999      137.7336   2.02301    2.02301    2.02301    2.02301    2.02301    2.02301    2.02301    2.02301    2.02301    2.037761   2.02301    0.01961983 0.01961983 11.17809   12.11071   8.200115   8.939493   5.75       -9999      -9999      -9999      -9999      -9999      -9999      71.7812    32.02328   -9999     
11296      -9999      138.1211   2.033658   2.033658   2.033658   2.033658   2.033658   2.033658   2.033658   2.033658   2.033658   2.037761   2.033658   0.01961983 0.01961983 11.17809   11.61665   8.200115   8.513803   5.75       -9999      -9999      -9999      -9999      -9999      -9999      78.55539   -9999      -9999     
11296.5    -9999      138.5086   2.044307   2.044307   2.044307   2.044307   2.044307   2.044307   2.044307   2.044307   2.044307   2.037761   2.044307   0.01961983 0.01961983 11.17809   11.12258   9.111238   8.513803   5.75       -9999      -9999      -9999      -9999      -9999      -9999      83.25225   -9999      -9999     
11297      -9999      138.6968   2.054956   2.054956   2.054956   2.054956   2.054956   2.054956   2.054956   2.054956   2.054956   2.041785   2.054956   0.01961481 0.01961481 11.23166   11.17155   10.02236   8.939493   5.75       -9999      -9999      -9999      -9999      -9999      -9999      85.53264   -9999      -9999     
11297.5    -9999      139.7896   2.054956   2.054956   2.054956   2.054956   2.054956   2.054956   2.054956   2.054956   2.054956   2.045809   2.054956   0.01960978 0.01960978 11.54271   11.45589   10.02236   9.365184   5.75       -9999      -9999      -9999      -9999      -9999      -9999      87.88936   -9999      -9999     
11298      -9999      141.567    2.065607   2.065607   2.032325   2.065607   2.065607   2.065607   2.065607   2.065607   2.065607   2.045809   2.065607   0.01960978 0.01960978 11.70706   11.60613   9.566801   9.365184   5.75       -9999      -9999      -9999      -9999      -9999      -9999      90.70535   -9999      -9999     
11298.5    -9999      141.7387   2.076258   2.076258   2.009694   2.076258   2.076258   2.076258   2.076258   2.076258   2.076258   2.045809   2.076258   0.01960978 0.01960978 11.43378   11.47834   9.111239   9.365184   5.75       -9999      -9999      -9999      -9999      -9999      -9999      93.42163   -9999      -9999     
11299      -9999      142.2169   2.086909   2.086909   1.987063   2.086909   2.086909   2.086909   2.086909   2.086909   2.086909   2.06728    2.086909   0.01961383 0.01961383 10.67302   11.12258   8.853607   7.662423   5.75       -9999      -9999      -9999      -9999      -9999      -9999      95.57295   -9999      -9999     
11299.5    221        142.2169   2.086909   2.086909   1.987063   2.086909   2.086909   2.086909   2.086909   2.086909   2.086909   2.088751   2.086909   0.01961788 0.01961788 10.67302   11.12258   7.288991   7.662423   5.75       -9999      -9999      -9999      -9999      -9999      -9999      98.78978   -9999      -9999     
11300      221        143.0003   2.086909   2.086909   1.987063   2.086909   2.086909   2.086909   2.086909   2.086909   2.086909   2.110222   2.086909   0.01962193 0.01962193 9.730309   10.65917   7.704117   8.088114   5.75       -9999      -9999      -9999      -9999      -9999      -9999      99.37891   -9999      -9999     
11300.5    221        143.0003   2.086905   2.086905   2.036982   2.086905   2.086905   2.086905   2.086905   2.036982   2.086905   2.110222   2.086905   0.01962193 0.01962193 9.730309   10.65917   8.200115   8.513803   5.75       -9999      -9999      -9999      -9999      -9999      -9999      98.26302   -9999      -9999     
11301      -9999      143.6503   2.086902   2.086902   2.086902   2.086902   2.086902   2.086902   2.086902   1.987056   2.086902   2.094118   2.086902   0.009198663 0.009198663 10.67302   11.12258   9.71511    8.513803   5.75       -9999      -9999      -9999      -9999      -9999      -9999      95.72638   -9999      -9999     
11301.5    -9999      143.6503   2.086902   2.086902   2.086902   2.086902   2.086902   2.086902   2.086902   1.987056   2.086902   2.078013   2.086902   -0.001224599 -0.001224599 10.67302   11.12258   10.93349   8.513803   5.75       -9999      -9999      -9999      -9999      -9999      -9999      92.21622   -9999      -9999     
11302      -9999      143.6503   2.081577   2.081577   2.081577   2.081577   2.081577   2.081577   2.081577   2.015013   2.081577   2.061909   2.081577   -0.01164786 -0.01164786 10.67302   11.12258   8.369103   9.790874   5.75       -9999      -9999      -9999      -9999      -9999      -9999      90.50285   -9999      -9999     
